{"type": "FeatureCollection", "features": [
{"type": "Feature", "geometry": {"type": "Point", "coordinates": [-93.601, 41.602]}, "properties": {"Name": "Cheng's Garden", "Address": "1246 E 14th St, Des Moines, IA 50316, USA", "Zip": "50316", "Price_Level(Google)": 0.0, "Rating(Google)": 2.8}}
,{"type": "Feature", "geometry": {"type": "Point", "coordinates": [-93.619, 41.629]}, "properties": {"Name": "W China Buffet", "Address": "100 E Euclid Ave, Des Moines, IA 50313, USA", "Zip": "50313", "Price_Level(Google)": 2.0, "Rating(Google)": 3.6}}
,{"type": "Feature", "geometry": {"type": "Point", "coordinates": [-93.6, 41.526]}, "properties": {"Name": "New China Buffet & Grill", "Address": "1201 E Army Post Rd, Des Moines, IA 50315, USA", "Zip": "50315", "Price_Level(Google)": 0.0, "Rating(Google)": 3.8}}
,{"type": "Feature", "geometry": {"type": "Point", "coordinates": [-93.698, 41.629]}, "properties": {"Name": "Cheng's Garden", "Address": "3708 Merle Hay Rd, Des Moines, IA 50310, USA", "Zip": "50310", "Price_Level(Google)": 0.0, "Rating(Google)": 3.1}}
,{"type": "Feature", "geometry": {"type": "Point", "coordinates": [-93.624, 41.586]}, "properties": {"Name": "Panda Chinese Food", "Address": "555 Walnut St, Des Moines, IA 50309, USA", "Zip": "50309", "Price_Level(Google)": 0.0, "Rating(Google)": 4.0}}
,{"type": "Feature", "geometry": {"type": "Point", "coordinates": [-93.627, 41.586]}, "properties": {"Name": "Panda Chinese Food", "Address": "700 Locust St # 13, Des Moines, IA 50309, USA", "Zip": "50309", "Price_Level(Google)": 0.0, "Rating(Google)": 5.0}}
,{"type": "Feature", "geometry": {"type": "Point", "coordinates": [-93.622, 41.586]}, "properties": {"Name": "Fong's Pizza", "Address": "223 4th St, Des Moines, IA 50309, USA", "Zip": "50309", "Price_Level(Google)": 1.0, "Rating(Google)": 4.5}}
,{"type": "Feature", "geometry": {"type": "Point", "coordinates": [-93.594, 41.594]}, "properties": {"Name": "Rolling Wok Cafe", "Address": "1534 E Grand Ave E, Des Moines, IA 50316, USA", "Zip": "50316", "Price_Level(Google)": 0.0, "Rating(Google)": 4.3}}
,{"type": "Feature", "geometry": {"type": "Point", "coordinates": [-93.674, 41.6]}, "properties": {"Name": "Hong Kong Chinese Restaurant", "Address": "4120 University Ave, Des Moines, IA 50311, USA", "Zip": "50311", "Price_Level(Google)": 2.0, "Rating(Google)": 3.5}}
,{"type": "Feature", "geometry": {"type": "Point", "coordinates": [-93.56, 41.601]}, "properties": {"Name": "China House", "Address": "2916 E University Ave, Des Moines, IA 50317, USA", "Zip": "50317", "Price_Level(Google)": 2.0, "Rating(Google)": 3.7}}
,{"type": "Feature", "geometry": {"type": "Point", "coordinates": [-93.627, 41.554]}, "properties": {"Name": "Sam's Fine Food & Egg Rolls", "Address": "3300 SW 9th St #4, Des Moines, IA 50315, USA", "Zip": "50315", "Price_Level(Google)": 0.0, "Rating(Google)": 4.7}}
,{"type": "Feature", "geometry": {"type": "Point", "coordinates": [-93.571, 41.629]}, "properties": {"Name": "Dragon House East", "Address": "E Euclid Ave, Des Moines, IA 50317, USA", "Zip": "50317", "Price_Level(Google)": 0.0, "Rating(Google)": 3.4}}
,{"type": "Feature", "geometry": {"type": "Point", "coordinates": [-93.575, 41.6]}, "properties": {"Name": "Tsing Tsao Chinese Fast Food", "Address": "2231 E University Ave, Des Moines, IA 50317, USA", "Zip": "50317", "Price_Level(Google)": 1.0, "Rating(Google)": 4.4}}
,{"type": "Feature", "geometry": {"type": "Point", "coordinates": [-93.646, 41.545]}, "properties": {"Name": "Tsing Tsao South", "Address": "4230 Fleur Dr, Des Moines, IA 50321, USA", "Zip": "50321", "Price_Level(Google)": 0.0, "Rating(Google)": 4.4}}
,{"type": "Feature", "geometry": {"type": "Point", "coordinates": [-93.619, 41.607]}, "properties": {"Name": "Pho 888", "Address": "1521 2nd Ave, Des Moines, IA 50314, USA", "Zip": "50314", "Price_Level(Google)": 0.0, "Rating(Google)": 4.2}}
,{"type": "Feature", "geometry": {"type": "Point", "coordinates": [-93.673, 41.618]}, "properties": {"Name": "Rice Bowl Restaurant", "Address": "2607 Beaver Ave, Des Moines, IA 50310, USA", "Zip": "50310", "Price_Level(Google)": 0.0, "Rating(Google)": 4.1}}
,{"type": "Feature", "geometry": {"type": "Point", "coordinates": [-93.693, 41.629]}, "properties": {"Name": "Wasabi Chi", "Address": "5418 Douglas Ave, Des Moines, IA 50310, USA", "Zip": "50310", "Price_Level(Google)": 0.0, "Rating(Google)": 4.7}}
,{"type": "Feature", "geometry": {"type": "Point", "coordinates": [-93.697, 41.615]}, "properties": {"Name": "Shang Yuen", "Address": "5717 Hickman Rd, Des Moines, IA 50310, USA", "Zip": "50310", "Price_Level(Google)": 0.0, "Rating(Google)": 4.3}}
,{"type": "Feature", "geometry": {"type": "Point", "coordinates": [-93.772, 41.571]}, "properties": {"Name": "China Jade", "Address": "5002 Ep True Pkwy, West Des Moines, IA 50265, USA", "Zip": "50265", "Price_Level(Google)": 2.0, "Rating(Google)": 3.8}}
,{"type": "Feature", "geometry": {"type": "Point", "coordinates": [-93.789, 41.585]}, "properties": {"Name": "Canton Chinese Cuisine", "Address": "5923 Ashworth Rd, West Des Moines, IA 50266, USA", "Zip": "50266", "Price_Level(Google)": 1.0, "Rating(Google)": 4.2}}
,{"type": "Feature", "geometry": {"type": "Point", "coordinates": [-93.799, 41.56]}, "properties": {"Name": "Iron Wok", "Address": "Suite 3108, 6630 Mills Civic Pkwy, West Des Moines, IA 50266, United States", "Zip": "50266", "Price_Level(Google)": 2.0, "Rating(Google)": 4.4}}
,{"type": "Feature", "geometry": {"type": "Point", "coordinates": [-93.626, 41.539]}, "properties": {"Name": "China Chef", "Address": "5010 SW 9th St, Des Moines, IA 50315, USA", "Zip": "50315", "Price_Level(Google)": 0.0, "Rating(Google)": 4.2}}
,{"type": "Feature", "geometry": {"type": "Point", "coordinates": [-93.676, 41.629]}, "properties": {"Name": "Taste of China", "Address": "4212 Douglas Ave, Des Moines, IA 50310, USA", "Zip": "50310", "Price_Level(Google)": 2.0, "Rating(Google)": 3.6}}
,{"type": "Feature", "geometry": {"type": "Point", "coordinates": [-93.626, 41.541]}, "properties": {"Name": "China One Buffet", "Address": "4804 SW 9th St, Des Moines, IA 50315, USA", "Zip": "50315", "Price_Level(Google)": 2.0, "Rating(Google)": 3.7}}
,{"type": "Feature", "geometry": {"type": "Point", "coordinates": [-93.696, 41.639]}, "properties": {"Name": "Bamboo Buffet & Grill", "Address": "4349 Merle Hay Rd, Des Moines, IA 50310, USA", "Zip": "50310", "Price_Level(Google)": 0.0, "Rating(Google)": 3.9}}
,{"type": "Feature", "geometry": {"type": "Point", "coordinates": [-93.805, 41.568]}, "properties": {"Name": "P.F. Chang's", "Address": "110 S Jordan Creek Pkwy, West Des Moines, IA 50266, USA", "Zip": "50266", "Price_Level(Google)": 2.0, "Rating(Google)": 3.7}}
,{"type": "Feature", "geometry": {"type": "Point", "coordinates": [-93.709, 41.572]}, "properties": {"Name": "Heavenly Asian Cuisine & Lounge", "Address": "225 5th St, West Des Moines, IA 50265, USA", "Zip": "50265", "Price_Level(Google)": 0.0, "Rating(Google)": 4.1}}
,{"type": "Feature", "geometry": {"type": "Point", "coordinates": [-93.637, 41.587]}, "properties": {"Name": "A Dong Restaurant", "Address": "1511 High St, Des Moines, IA 50309, USA", "Zip": "50309", "Price_Level(Google)": 2.0, "Rating(Google)": 4.6}}
,{"type": "Feature", "geometry": {"type": "Point", "coordinates": [-93.753, 41.597]}, "properties": {"Name": "Panda Express", "Address": "1580 Valley W Dr, West Des Moines, IA 50266, USA", "Zip": "50266", "Price_Level(Google)": 1.0, "Rating(Google)": 3.7}}
,{"type": "Feature", "geometry": {"type": "Point", "coordinates": [-93.606, 41.6]}, "properties": {"Name": "Fawn's Asian Cuisine", "Address": "1107 E University Ave, Des Moines, IA 50316, USA", "Zip": "50316", "Price_Level(Google)": 0.0, "Rating(Google)": 4.5}}
,{"type": "Feature", "geometry": {"type": "Point", "coordinates": [-93.735, 41.599]}, "properties": {"Name": "Hibachi Grill & Supreme Buffet", "Address": "1801 22nd St, West Des Moines, IA 50266, USA", "Zip": "50266", "Price_Level(Google)": 0.0, "Rating(Google)": 4.0}}
,{"type": "Feature", "geometry": {"type": "Point", "coordinates": [-93.804, 41.569]}, "properties": {"Name": "Famous Wok", "Address": "101 Jordan Creek Pkwy # 12502, West Des Moines, IA 50266, USA", "Zip": "50266", "Price_Level(Google)": 0.0, "Rating(Google)": 2.7}}
,{"type": "Feature", "geometry": {"type": "Point", "coordinates": [-93.622, 41.586]}, "properties": {"Name": "Wasabi Tao", "Address": "400 Walnut St, Des Moines, IA 50309, USA", "Zip": "50309", "Price_Level(Google)": 0.0, "Rating(Google)": 4.5}}
,{"type": "Feature", "geometry": {"type": "Point", "coordinates": [-93.758, 41.6]}, "properties": {"Name": "HuHot Mongolian Grill", "Address": "4100 University Ave, West Des Moines, IA 50266, USA", "Zip": "50266", "Price_Level(Google)": 0.0, "Rating(Google)": 4.4}}
,{"type": "Feature", "geometry": {"type": "Point", "coordinates": [-93.601, 41.602]}, "properties": {"Name": "Cafe Fuzion", "Address": "1240 E 14th St, Des Moines, IA 50316, USA", "Zip": "50316", "Price_Level(Google)": 0.0, "Rating(Google)": 4.7}}
,{"type": "Feature", "geometry": {"type": "Point", "coordinates": [-93.839, 41.6]}, "properties": {"Name": "Wasabi", "Address": "9500 University Ave #2101, West Des Moines, IA 50266, USA", "Zip": "50266", "Price_Level(Google)": 0.0, "Rating(Google)": 4.6}}
,{"type": "Feature", "geometry": {"type": "Point", "coordinates": [-93.613, 41.568]}, "properties": {"Name": "Aroy-Dee Restaurant", "Address": "2128 Indianola Ave, Des Moines, IA 50315, USA", "Zip": "50315", "Price_Level(Google)": 0.0, "Rating(Google)": 4.6}}
,{"type": "Feature", "geometry": {"type": "Point", "coordinates": [-93.634, 41.585]}, "properties": {"Name": "Americana", "Address": "1312 Locust St, Des Moines, IA 50309, USA", "Zip": "50309", "Price_Level(Google)": 2.0, "Rating(Google)": 4.3}}
,{"type": "Feature", "geometry": {"type": "Point", "coordinates": [-93.716, 41.6]}, "properties": {"Name": "China Garden", "Address": "7164 University Ave, Windsor Heights, IA 50324, USA", "Zip": "50324", "Price_Level(Google)": 2.0, "Rating(Google)": 2.9}}
,{"type": "Feature", "geometry": {"type": "Point", "coordinates": [-93.598, 41.554]}, "properties": {"Name": "Nut Pob Restaurant", "Address": "3322 Indianola Ave, Des Moines, IA 50315, USA", "Zip": "50315", "Price_Level(Google)": 0.0, "Rating(Google)": 4.2}}
,{"type": "Feature", "geometry": {"type": "Point", "coordinates": [-93.611, 41.592]}, "properties": {"Name": "Alba Restaurant", "Address": "524 E 6th St, Des Moines, IA 50309, USA", "Zip": "50309", "Price_Level(Google)": 2.0, "Rating(Google)": 4.5}}
,{"type": "Feature", "geometry": {"type": "Point", "coordinates": [-93.63, 41.586]}, "properties": {"Name": "Centro", "Address": "1003 Locust St, Des Moines, IA 50309, USA", "Zip": "50309", "Price_Level(Google)": 0.0, "Rating(Google)": 4.6}}
,{"type": "Feature", "geometry": {"type": "Point", "coordinates": [-93.634, 41.585]}, "properties": {"Name": "Proof", "Address": "1301 Locust Street,Suite C, Des Moines, IA 50309, United States", "Zip": "50309", "Price_Level(Google)": 2.0, "Rating(Google)": 4.5}}
,{"type": "Feature", "geometry": {"type": "Point", "coordinates": [-93.757, 41.631]}, "properties": {"Name": "Tsing Tsao West", "Address": "3846 100th St, Urbandale, IA 50322, USA", "Zip": "50322", "Price_Level(Google)": 0.0, "Rating(Google)": 4.2}}
,{"type": "Feature", "geometry": {"type": "Point", "coordinates": [-93.703, 41.632]}, "properties": {"Name": "Vietnam Cafe", "Address": "3800 Merle Hay Rd, Des Moines, IA 50310, USA", "Zip": "50310", "Price_Level(Google)": 0.0, "Rating(Google)": 4.6}}
,{"type": "Feature", "geometry": {"type": "Point", "coordinates": [-93.713, 41.589]}, "properties": {"Name": "Lemon Grass", "Address": "1221 8th St, West Des Moines, IA 50265, USA", "Zip": "50265", "Price_Level(Google)": 0.0, "Rating(Google)": 4.4}}
,{"type": "Feature", "geometry": {"type": "Point", "coordinates": [-93.63, 41.584]}, "properties": {"Name": "Django", "Address": "210 10th St, Des Moines, IA 50309, USA", "Zip": "50309", "Price_Level(Google)": 2.0, "Rating(Google)": 4.4}}
,{"type": "Feature", "geometry": {"type": "Point", "coordinates": [-93.633, 41.585]}, "properties": {"Name": "The Fighting Burrito", "Address": "309 13th St, Des Moines, IA 50309, USA", "Zip": "50309", "Price_Level(Google)": 0.0, "Rating(Google)": 4.3}}
,{"type": "Feature", "geometry": {"type": "Point", "coordinates": [-93.643, 41.586]}, "properties": {"Name": "Gusto Pizza Co.", "Address": "1905 Ingersoll Ave, Des Moines, IA 50309, USA", "Zip": "50309", "Price_Level(Google)": 1.0, "Rating(Google)": 4.3}}
,{"type": "Feature", "geometry": {"type": "Point", "coordinates": [-93.739, 41.602]}, "properties": {"Name": "Buffet City", "Address": "8801 University Ave, Clive, IA 50325, USA", "Zip": "50325", "Price_Level(Google)": 1.0, "Rating(Google)": 3.6}}
,{"type": "Feature", "geometry": {"type": "Point", "coordinates": [-93.596, 41.552]}, "properties": {"Name": "Burger King", "Address": "3601 SE 14th St, Des Moines, IA 50320, USA", "Zip": "50320", "Price_Level(Google)": 1.0, "Rating(Google)": 3.6}}
,{"type": "Feature", "geometry": {"type": "Point", "coordinates": [-93.611, 41.591]}, "properties": {"Name": "Quinton's Bar & Deli", "Address": "506 E Grand Ave, Des Moines, IA 50309, USA", "Zip": "50309", "Price_Level(Google)": 1.0, "Rating(Google)": 3.8}}
,{"type": "Feature", "geometry": {"type": "Point", "coordinates": [-93.613, 41.59]}, "properties": {"Name": "AC Hotel by Marriott Des Moines East Village", "Address": "401 E Grand Ave, Des Moines, IA 50309, USA", "Zip": "50309", "Price_Level(Google)": 0.0, "Rating(Google)": 4.6}}
,{"type": "Feature", "geometry": {"type": "Point", "coordinates": [-93.611, 41.589]}, "properties": {"Name": "HoQ", "Address": "303 E 5th St, Des Moines, IA 50309, USA", "Zip": "50309", "Price_Level(Google)": 0.0, "Rating(Google)": 4.2}}
,{"type": "Feature", "geometry": {"type": "Point", "coordinates": [-93.62, 41.582]}, "properties": {"Name": "Blaze Pizza", "Address": "300 W Martin Luther King Jr Pkwy, Des Moines, IA 50309, USA", "Zip": "50309", "Price_Level(Google)": 0.0, "Rating(Google)": 4.6}}
,{"type": "Feature", "geometry": {"type": "Point", "coordinates": [-93.625, 41.575]}, "properties": {"Name": "Taco Bell", "Address": "640 SW 9th St, Des Moines, IA 50309, USA", "Zip": "50309", "Price_Level(Google)": 1.0, "Rating(Google)": 3.2}}
,{"type": "Feature", "geometry": {"type": "Point", "coordinates": [-93.628, 41.584]}, "properties": {"Name": "Malo", "Address": "900 Mulberry St, Des Moines, IA 50309, USA", "Zip": "50309", "Price_Level(Google)": 0.0, "Rating(Google)": 4.2}}
,{"type": "Feature", "geometry": {"type": "Point", "coordinates": [-93.625, 41.586]}, "properties": {"Name": "Burger King", "Address": "665 Walnut St, Des Moines, IA 50309, USA", "Zip": "50309", "Price_Level(Google)": 1.0, "Rating(Google)": 3.0}}
,{"type": "Feature", "geometry": {"type": "Point", "coordinates": [-93.623, 41.587]}, "properties": {"Name": "Catch Des Moines - Greater Des Moines Convention & Visitors Bureau", "Address": "400 Locust St #265, Des Moines, IA 50309, USA", "Zip": "50309", "Price_Level(Google)": 0.0, "Rating(Google)": 4.8}}
,{"type": "Feature", "geometry": {"type": "Point", "coordinates": [-93.7, 41.631]}, "properties": {"Name": "Panda Express", "Address": "3850 Merle Hay Rd, Des Moines, IA 50310, USA", "Zip": "50310", "Price_Level(Google)": 1.0, "Rating(Google)": 3.1}}
,{"type": "Feature", "geometry": {"type": "Point", "coordinates": [-93.65, 41.6]}, "properties": {"Name": "China Place Restaurant", "Address": "2414 University Ave, Des Moines, IA 50311, USA", "Zip": "50311", "Price_Level(Google)": 0.0, "Rating(Google)": 3.6}}
,{"type": "Feature", "geometry": {"type": "Point", "coordinates": [-93.659, 41.602]}, "properties": {"Name": "Haiku", "Address": "1315 31st St, Des Moines, IA 50311, USA", "Zip": "50311", "Price_Level(Google)": 2.0, "Rating(Google)": 4.2}}
,{"type": "Feature", "geometry": {"type": "Point", "coordinates": [-93.644, 41.546]}, "properties": {"Name": "Cheng's Garden Chinese Restaurant", "Address": "4221 Fleur Dr, Des Moines, IA 50321, USA", "Zip": "50321", "Price_Level(Google)": 0.0, "Rating(Google)": 4.5}}
,{"type": "Feature", "geometry": {"type": "Point", "coordinates": [-93.797, 41.562]}, "properties": {"Name": "Panda Express", "Address": "6495 Mills Civic Pkwy, West Des Moines, IA 50266, USA", "Zip": "50266", "Price_Level(Google)": 1.0, "Rating(Google)": 3.7}}
,{"type": "Feature", "geometry": {"type": "Point", "coordinates": [-93.699, 41.66]}, "properties": {"Name": "Wong's Chopsticks", "Address": "5500 Merle Hay Rd, Johnston, IA 50131, USA", "Zip": "50131", "Price_Level(Google)": 0.0, "Rating(Google)": 3.3}}
,{"type": "Feature", "geometry": {"type": "Point", "coordinates": [-93.62, 41.608]}, "properties": {"Name": "Le's Chinese Bar-B-Que", "Address": "1600 2nd Ave, Des Moines, IA 50314, USA", "Zip": "50314", "Price_Level(Google)": 0.0, "Rating(Google)": 4.7}}
,{"type": "Feature", "geometry": {"type": "Point", "coordinates": [-93.654, 41.585]}, "properties": {"Name": "Harbinger", "Address": "2724 Ingersoll Ave, Des Moines, IA 50312, USA", "Zip": "50312", "Price_Level(Google)": 0.0, "Rating(Google)": 4.7}}
,{"type": "Feature", "geometry": {"type": "Point", "coordinates": [-93.835, 41.614]}, "properties": {"Name": "Phoenix Asian Restaurant", "Address": "15700 Hickman Rd, Clive, IA 50325, USA", "Zip": "50325", "Price_Level(Google)": 2.0, "Rating(Google)": 3.4}}
,{"type": "Feature", "geometry": {"type": "Point", "coordinates": [-93.652, 41.585]}, "properties": {"Name": "Abelardo's Mexican Restaurant", "Address": "2510 Ingersoll Ave, Des Moines, IA 50312, USA", "Zip": "50312", "Price_Level(Google)": 0.0, "Rating(Google)": 3.9}}
,{"type": "Feature", "geometry": {"type": "Point", "coordinates": [-93.506, 41.644]}, "properties": {"Name": "Panda Express", "Address": "3640 8th St SW, Altoona, IA 50009, USA", "Zip": "50009", "Price_Level(Google)": 1.0, "Rating(Google)": 3.4}}
,{"type": "Feature", "geometry": {"type": "Point", "coordinates": [-93.711, 41.629]}, "properties": {"Name": "House of Hunan", "Address": "6810 Douglas Ave, Urbandale, IA 50322, USA", "Zip": "50322", "Price_Level(Google)": 0.0, "Rating(Google)": 3.9}}
,{"type": "Feature", "geometry": {"type": "Point", "coordinates": [-93.597, 41.554]}, "properties": {"Name": "Mr Eggroll Chinese Fast Food", "Address": "3330 Indianola Ave, Des Moines, IA 50315, USA", "Zip": "50315", "Price_Level(Google)": 0.0, "Rating(Google)": 3.8}}
,{"type": "Feature", "geometry": {"type": "Point", "coordinates": [-93.581, 41.709]}, "properties": {"Name": "Panda Express", "Address": "2155 SE Delaware Ave, Ankeny, IA 50021, USA", "Zip": "50021", "Price_Level(Google)": 1.0, "Rating(Google)": 3.7}}
,{"type": "Feature", "geometry": {"type": "Point", "coordinates": [-93.7, 41.583]}, "properties": {"Name": "Viva Mexican Restaurant", "Address": "6101 Grand Ave, Des Moines, IA 50312, USA", "Zip": "50312", "Price_Level(Google)": 0.0, "Rating(Google)": 4.1}}
,{"type": "Feature", "geometry": {"type": "Point", "coordinates": [-93.597, 41.702]}, "properties": {"Name": "China Moon Restaurant", "Address": "225 SE Oralabor Rd, Ankeny, IA 50021, USA", "Zip": "50021", "Price_Level(Google)": 2.0, "Rating(Google)": 4.1}}
,{"type": "Feature", "geometry": {"type": "Point", "coordinates": [-93.653, 41.585]}, "properties": {"Name": "Pancheros Mexican Grill", "Address": "2708 Ingersoll Ave, Des Moines, IA 50312, USA", "Zip": "50312", "Price_Level(Google)": 0.0, "Rating(Google)": 3.6}}
,{"type": "Feature", "geometry": {"type": "Point", "coordinates": [-93.675, 41.49]}, "properties": {"Name": "China Dragon", "Address": "2351 Sunset Dr #103, Norwalk, IA 50211, USA", "Zip": "50211", "Price_Level(Google)": 2.0, "Rating(Google)": 3.9}}
,{"type": "Feature", "geometry": {"type": "Point", "coordinates": [-93.582, 41.708]}, "properties": {"Name": "HuHot Mongolian Grill", "Address": "2310 SE Delaware Ave, Delaware Marketplace, Ankeny, IA 50021, United States", "Zip": "50021", "Price_Level(Google)": 0.0, "Rating(Google)": 4.5}}
,{"type": "Feature", "geometry": {"type": "Point", "coordinates": [-93.868, 41.616]}, "properties": {"Name": "Shanghai", "Address": "33 Carefree Ln, Waukee, IA 50263, USA", "Zip": "50263", "Price_Level(Google)": 2.0, "Rating(Google)": 4.7}}
,{"type": "Feature", "geometry": {"type": "Point", "coordinates": [-93.619, 41.713]}, "properties": {"Name": "Fong's Pizza Ankeny", "Address": "1450 SW Vintage Pkwy #120, Ankeny, IA 50023, USA", "Zip": "50023", "Price_Level(Google)": 0.0, "Rating(Google)": 4.4}}
,{"type": "Feature", "geometry": {"type": "Point", "coordinates": [-93.65, 41.585]}, "properties": {"Name": "Noah's Ark", "Address": "2400 Ingersoll Ave, Des Moines, IA 50312, USA", "Zip": "50312", "Price_Level(Google)": 0.0, "Rating(Google)": 4.3}}
,{"type": "Feature", "geometry": {"type": "Point", "coordinates": [-93.601, 41.737]}, "properties": {"Name": "Jade Garden Chinese Restaurant", "Address": "602 N Ankeny Blvd, Ankeny, IA 50023, USA", "Zip": "50023", "Price_Level(Google)": 2.0, "Rating(Google)": 3.9}}
,{"type": "Feature", "geometry": {"type": "Point", "coordinates": [-93.582, 41.709]}, "properties": {"Name": "China Buffet", "Address": "2010 SE Delaware Ave # 240, Ankeny, IA 50021, USA", "Zip": "50021", "Price_Level(Google)": 2.0, "Rating(Google)": 3.0}}
,{"type": "Feature", "geometry": {"type": "Point", "coordinates": [-93.781, 41.688]}, "properties": {"Name": "Asian Cuisine", "Address": "200 SE Gateway Dr, Grimes, IA 50111, USA", "Zip": "50111", "Price_Level(Google)": 0.0, "Rating(Google)": 4.3}}
,{"type": "Feature", "geometry": {"type": "Point", "coordinates": [-93.674, 41.594]}, "properties": {"Name": "Papa John's Pizza", "Address": "911 42nd St, Des Moines, IA 50312, USA", "Zip": "50312", "Price_Level(Google)": 2.0, "Rating(Google)": 2.9}}
,{"type": "Feature", "geometry": {"type": "Point", "coordinates": [-93.797, 41.688]}, "properties": {"Name": "Fortune Garden", "Address": "270 W 1st St, Grimes, IA 50111, USA", "Zip": "50111", "Price_Level(Google)": 0.0, "Rating(Google)": 4.4}}
,{"type": "Feature", "geometry": {"type": "Point", "coordinates": [-93.606, 41.627]}, "properties": {"Name": "International Buffet", "Address": "901 E Euclid Ave, Des Moines, IA 50316, USA", "Zip": "50316", "Price_Level(Google)": 2.0, "Rating(Google)": 2.7}}
,{"type": "Feature", "geometry": {"type": "Point", "coordinates": [-93.609, 41.591]}, "properties": {"Name": "Cafe Baratta's", "Address": "600 E Locust St, Des Moines, IA 50319, USA", "Zip": "50319", "Price_Level(Google)": 0.0, "Rating(Google)": 4.4}}
,{"type": "Feature", "geometry": {"type": "Point", "coordinates": [-93.611, 41.59]}, "properties": {"Name": "Tacopocalypse", "Address": "407 E 5th St, Des Moines, IA 50309, USA", "Zip": "50309", "Price_Level(Google)": 1.0, "Rating(Google)": 3.8}}
,{"type": "Feature", "geometry": {"type": "Point", "coordinates": [-93.596, 41.527]}, "properties": {"Name": "Applebee\u2019s Grill + Bar", "Address": "6301 SE 14th St, Des Moines, IA 50320, USA", "Zip": "50320", "Price_Level(Google)": 2.0, "Rating(Google)": 4.0}}
,{"type": "Feature", "geometry": {"type": "Point", "coordinates": [-93.596, 41.538]}, "properties": {"Name": "Wendy's", "Address": "4901 SE 14th St, Des Moines, IA 50320, USA", "Zip": "50320", "Price_Level(Google)": 1.0, "Rating(Google)": 3.4}}
,{"type": "Feature", "geometry": {"type": "Point", "coordinates": [-93.598, 41.528]}, "properties": {"Name": "Popeyes Louisiana Kitchen", "Address": "6230 SE 14th St, Des Moines, IA 50320, USA", "Zip": "50320", "Price_Level(Google)": 1.0, "Rating(Google)": 3.8}}
,{"type": "Feature", "geometry": {"type": "Point", "coordinates": [-93.596, 41.533]}, "properties": {"Name": "Tasty Tacos Inc", "Address": "5847 SE 14th St, Des Moines, IA 50320, USA", "Zip": "50320", "Price_Level(Google)": 1.0, "Rating(Google)": 4.5}}
,{"type": "Feature", "geometry": {"type": "Point", "coordinates": [-93.596, 41.539]}, "properties": {"Name": "IHOP", "Address": "4807 SE 14th St, Des Moines, IA 50320, USA", "Zip": "50320", "Price_Level(Google)": 1.0, "Rating(Google)": 4.1}}
,{"type": "Feature", "geometry": {"type": "Point", "coordinates": [-93.597, 41.548]}, "properties": {"Name": "SUBWAY\u00aeRestaurants", "Address": "3940 SE 14th St, Des Moines, IA 50320, USA", "Zip": "50320", "Price_Level(Google)": 1.0, "Rating(Google)": 3.7}}
,{"type": "Feature", "geometry": {"type": "Point", "coordinates": [-93.597, 41.557]}, "properties": {"Name": "Long John Silver's", "Address": "3006 SE 14th St, Des Moines, IA 50320, USA", "Zip": "50320", "Price_Level(Google)": 1.0, "Rating(Google)": 3.8}}
,{"type": "Feature", "geometry": {"type": "Point", "coordinates": [-93.596, 41.526]}, "properties": {"Name": "Everest Restaurant", "Address": "6401 SE 14th St, Des Moines, IA 50320, USA", "Zip": "50320", "Price_Level(Google)": 0.0, "Rating(Google)": 4.4}}
,{"type": "Feature", "geometry": {"type": "Point", "coordinates": [-93.597, 41.527]}, "properties": {"Name": "Arby's", "Address": "6300 SE 14th St, Des Moines, IA 50320, USA", "Zip": "50320", "Price_Level(Google)": 0.0, "Rating(Google)": 4.1}}
,{"type": "Feature", "geometry": {"type": "Point", "coordinates": [-93.596, 41.546]}, "properties": {"Name": "Kathmandu Restaurant", "Address": "4121 SE 14th St, Des Moines, IA 50320, USA", "Zip": "50320", "Price_Level(Google)": 0.0, "Rating(Google)": 4.7}}
,{"type": "Feature", "geometry": {"type": "Point", "coordinates": [-93.598, 41.57]}, "properties": {"Name": "Scornovacca's Ristorante", "Address": "1930 SE 14th St, Des Moines, IA 50320, USA", "Zip": "50320", "Price_Level(Google)": 2.0, "Rating(Google)": 4.4}}
,{"type": "Feature", "geometry": {"type": "Point", "coordinates": [-93.598, 41.537]}, "properties": {"Name": "5 De Mayo Mexican Restaurant", "Address": "5118 SE 14th St, Des Moines, IA 50320, USA", "Zip": "50320", "Price_Level(Google)": 2.0, "Rating(Google)": 3.9}}
,{"type": "Feature", "geometry": {"type": "Point", "coordinates": [-93.593, 41.55]}, "properties": {"Name": "Riccelli's Restaurant", "Address": "3803 Indianola Ave, Des Moines, IA 50320, USA", "Zip": "50320", "Price_Level(Google)": 0.0, "Rating(Google)": 3.6}}
]}