{"type": "FeatureCollection", "features": [
{"type": "Feature", "geometry": {"type": "Point", "coordinates": [-98.509, 29.467]}, "properties": {"Name": "Rolando's Super Tacos", "Address": "4607, 919 W Hildebrand Ave, San Antonio, TX 78201, United States", "Zip": "78201", "Price_Level(Google)": 1.0, "Rating(Google)": 4.1}}
,{"type": "Feature", "geometry": {"type": "Point", "coordinates": [-98.568, 29.49]}, "properties": {"Name": "Wapo Taco", "Address": "4263 NW Loop 410 #100, San Antonio, TX 78229, USA", "Zip": "78229", "Price_Level(Google)": 0.0, "Rating(Google)": 4.4}}
,{"type": "Feature", "geometry": {"type": "Point", "coordinates": [-98.5, 29.495]}, "properties": {"Name": "Taco House", "Address": "6307 San Pedro Ave, San Antonio, TX 78216, USA", "Zip": "78216", "Price_Level(Google)": 0.0, "Rating(Google)": 4.4}}
,{"type": "Feature", "geometry": {"type": "Point", "coordinates": [-98.492, 29.467]}, "properties": {"Name": "Taco Taco Cafe", "Address": "145 E Hildebrand Ave, San Antonio, TX 78212, USA", "Zip": "78212", "Price_Level(Google)": 1.0, "Rating(Google)": 3.2}}
,{"type": "Feature", "geometry": {"type": "Point", "coordinates": [-98.555, 29.429]}, "properties": {"Name": "Mexico Taco Mexican Restaurant", "Address": "203 S General McMullen Dr, San Antonio, TX 78237, USA", "Zip": "78237", "Price_Level(Google)": 0.0, "Rating(Google)": 4.4}}
,{"type": "Feature", "geometry": {"type": "Point", "coordinates": [-98.561, 29.528]}, "properties": {"Name": "Taco Tote San Antonio", "Address": "9502 I-10, San Antonio, TX 78230, USA", "Zip": "78230", "Price_Level(Google)": 2.0, "Rating(Google)": 4.0}}
,{"type": "Feature", "geometry": {"type": "Point", "coordinates": [-98.487, 29.41]}, "properties": {"Name": "Taco Haven", "Address": "1032 S Presa St, San Antonio, TX 78210, USA", "Zip": "78210", "Price_Level(Google)": 1.0, "Rating(Google)": 3.7}}
,{"type": "Feature", "geometry": {"type": "Point", "coordinates": [-98.559, 29.396]}, "properties": {"Name": "Fajita Taco Place", "Address": "1816 Thompson Pl, San Antonio, TX 78226, United States", "Zip": "78226", "Price_Level(Google)": 0.0, "Rating(Google)": 4.1}}
,{"type": "Feature", "geometry": {"type": "Point", "coordinates": [-98.548, 29.486]}, "properties": {"Name": "Taco Cabana", "Address": "4205 Fredericksburg Rd, San Antonio, TX 78201, USA", "Zip": "78201", "Price_Level(Google)": 1.0, "Rating(Google)": 3.8}}
,{"type": "Feature", "geometry": {"type": "Point", "coordinates": [-98.471, 29.498]}, "properties": {"Name": "Torchy's Tacos", "Address": "999 E Basse Rd #183, San Antonio, TX 78209, USA", "Zip": "78209", "Price_Level(Google)": 1.0, "Rating(Google)": 4.4}}
,{"type": "Feature", "geometry": {"type": "Point", "coordinates": [-98.499, 29.466]}, "properties": {"Name": "Taco Cabana", "Address": "3310 San Pedro Ave, San Antonio, TX 78212, USA", "Zip": "78212", "Price_Level(Google)": 1.0, "Rating(Google)": 3.5}}
,{"type": "Feature", "geometry": {"type": "Point", "coordinates": [-98.605, 29.484]}, "properties": {"Name": "Henry's Puffy Tacos", "Address": "6030 Bandera Rd, San Antonio, TX 78238, USA", "Zip": "78238", "Price_Level(Google)": 0.0, "Rating(Google)": 4.2}}
,{"type": "Feature", "geometry": {"type": "Point", "coordinates": [-98.492, 29.515]}, "properties": {"Name": "Fajita Taco Place", "Address": "8315 McCullough Ave, San Antonio, TX 78216, USA", "Zip": "78216", "Price_Level(Google)": 0.0, "Rating(Google)": 4.4}}
,{"type": "Feature", "geometry": {"type": "Point", "coordinates": [-98.575, 29.571]}, "properties": {"Name": "Fajita Taco Place", "Address": "4503 De Zavala Rd, San Antonio, TX 78249, USA", "Zip": "78249", "Price_Level(Google)": 0.0, "Rating(Google)": 4.0}}
,{"type": "Feature", "geometry": {"type": "Point", "coordinates": [-98.526, 29.486]}, "properties": {"Name": "Taquitos West Avenue", "Address": "2818 West Ave, San Antonio, TX 78201, USA", "Zip": "78201", "Price_Level(Google)": 0.0, "Rating(Google)": 4.5}}
,{"type": "Feature", "geometry": {"type": "Point", "coordinates": [-98.462, 29.558]}, "properties": {"Name": "Pepe's Tacos N Salsa", "Address": "12820 Jones Maltsberger Rd, San Antonio, TX 78247, USA", "Zip": "78247", "Price_Level(Google)": 0.0, "Rating(Google)": 4.4}}
,{"type": "Feature", "geometry": {"type": "Point", "coordinates": [-98.494, 29.627]}, "properties": {"Name": "L Taco Stone Oak", "Address": "19202 Stone Oak Pkwy #103, San Antonio, TX 78258, USA", "Zip": "78258", "Price_Level(Google)": 0.0, "Rating(Google)": 3.9}}
,{"type": "Feature", "geometry": {"type": "Point", "coordinates": [-98.401, 29.556]}, "properties": {"Name": "Erick's Tacos", "Address": "12715 Nacogdoches Rd, San Antonio, TX 78217, USA", "Zip": "78217", "Price_Level(Google)": 2.0, "Rating(Google)": 4.3}}
,{"type": "Feature", "geometry": {"type": "Point", "coordinates": [-98.499, 29.439]}, "properties": {"Name": "Taco Bell", "Address": "615 San Pedro Ave, San Antonio, TX 78212, USA", "Zip": "78212", "Price_Level(Google)": 1.0, "Rating(Google)": 4.1}}
,{"type": "Feature", "geometry": {"type": "Point", "coordinates": [-98.556, 29.457]}, "properties": {"Name": "Henry's Puffy Tacos Express", "Address": "3202 W Woodlawn Ave, San Antonio, TX 78228, USA", "Zip": "78228", "Price_Level(Google)": 0.0, "Rating(Google)": 4.3}}
,{"type": "Feature", "geometry": {"type": "Point", "coordinates": [-98.506, 29.411]}, "properties": {"Name": "Eddie's Taco House", "Address": "402 W Cevallos St, San Antonio, TX 78204, USA", "Zip": "78204", "Price_Level(Google)": 0.0, "Rating(Google)": 4.3}}
,{"type": "Feature", "geometry": {"type": "Point", "coordinates": [-98.492, 29.443]}, "properties": {"Name": "Little Taco Factory", "Address": "1510 McCullough Ave, San Antonio, TX 78212, USA", "Zip": "78212", "Price_Level(Google)": 2.0, "Rating(Google)": 4.4}}
,{"type": "Feature", "geometry": {"type": "Point", "coordinates": [-98.526, 29.468]}, "properties": {"Name": "Jacala Mexican Restaurant", "Address": "606 West Ave, San Antonio, TX 78201, USA", "Zip": "78201", "Price_Level(Google)": 2.0, "Rating(Google)": 4.0}}
,{"type": "Feature", "geometry": {"type": "Point", "coordinates": [-98.459, 29.516]}, "properties": {"Name": "Taco Palenque Loop 410", "Address": "1002 NE Interstate 410 Loop, San Antonio, TX 78209, USA", "Zip": "78209", "Price_Level(Google)": 2.0, "Rating(Google)": 4.2}}
,{"type": "Feature", "geometry": {"type": "Point", "coordinates": [-98.486, 29.566]}, "properties": {"Name": "Los Balito's Taco Shop", "Address": "226 W Bitters Rd #118, San Antonio, TX 78216, USA", "Zip": "78216", "Price_Level(Google)": 1.0, "Rating(Google)": 4.2}}
,{"type": "Feature", "geometry": {"type": "Point", "coordinates": [-98.508, 29.486]}, "properties": {"Name": "Los Barrios Mexican Restaurant", "Address": "4223 Blanco Rd, San Antonio, TX 78212, USA", "Zip": "78212", "Price_Level(Google)": 2.0, "Rating(Google)": 4.2}}
,{"type": "Feature", "geometry": {"type": "Point", "coordinates": [-98.526, 29.478]}, "properties": {"Name": "Sukie's Taco House", "Address": "1808 West Ave, San Antonio, TX 78201, USA", "Zip": "78201", "Price_Level(Google)": 0.0, "Rating(Google)": 4.5}}
,{"type": "Feature", "geometry": {"type": "Point", "coordinates": [-98.534, 29.446]}, "properties": {"Name": "Mario's Tacos", "Address": "San Antonio, TX 78201, USA", "Zip": "78201", "Price_Level(Google)": 0.0, "Rating(Google)": 4.6}}
,{"type": "Feature", "geometry": {"type": "Point", "coordinates": [-98.538, 29.477]}, "properties": {"Name": "Gloria's Taco House", "Address": "3534 Fredericksburg Rd #31, San Antonio, TX 78201, USA", "Zip": "78201", "Price_Level(Google)": 0.0, "Rating(Google)": 4.2}}
,{"type": "Feature", "geometry": {"type": "Point", "coordinates": [-98.513, 29.399]}, "properties": {"Name": "Tony's Tacos To Go", "Address": "1503 Nogalitos St, San Antonio, TX 78204, USA", "Zip": "78204", "Price_Level(Google)": 0.0, "Rating(Google)": 4.3}}
,{"type": "Feature", "geometry": {"type": "Point", "coordinates": [-98.423, 29.563]}, "properties": {"Name": "Eddie's Taco House", "Address": "3755 Thousand Oaks, San Antonio, TX 78247, USA", "Zip": "78247", "Price_Level(Google)": 2.0, "Rating(Google)": 4.1}}
,{"type": "Feature", "geometry": {"type": "Point", "coordinates": [-98.586, 29.593]}, "properties": {"Name": "Tacos n\u2019 Salsa Mexican Cafe", "Address": "5123 North Loop 1604 W, San Antonio, TX 78249, USA", "Zip": "78249", "Price_Level(Google)": 0.0, "Rating(Google)": 4.6}}
,{"type": "Feature", "geometry": {"type": "Point", "coordinates": [-98.531, 29.445]}, "properties": {"Name": "Tacos El Mexicano", "Address": "1322 Culebra Rd, San Antonio, TX 78201, USA", "Zip": "78201", "Price_Level(Google)": 0.0, "Rating(Google)": 4.6}}
,{"type": "Feature", "geometry": {"type": "Point", "coordinates": [-98.536, 29.512]}, "properties": {"Name": "Taco Cabana", "Address": "2627 NW Loop 410, San Antonio, TX 78230, USA", "Zip": "78230", "Price_Level(Google)": 1.0, "Rating(Google)": 3.6}}
,{"type": "Feature", "geometry": {"type": "Point", "coordinates": [-98.532, 29.395]}, "properties": {"Name": "Oscar's Taco House", "Address": "705 Barrett Pl, San Antonio, TX 78225, USA", "Zip": "78225", "Price_Level(Google)": 0.0, "Rating(Google)": 4.2}}
,{"type": "Feature", "geometry": {"type": "Point", "coordinates": [-98.484, 29.433]}, "properties": {"Name": "Pete's Tako House", "Address": "502 Brooklyn Ave, San Antonio, TX 78215, USA", "Zip": "78215", "Price_Level(Google)": 2.0, "Rating(Google)": 4.5}}
,{"type": "Feature", "geometry": {"type": "Point", "coordinates": [-98.556, 29.431]}, "properties": {"Name": "Taco Cabana", "Address": "4723 W Commerce St, San Antonio, TX 78237, USA", "Zip": "78237", "Price_Level(Google)": 1.0, "Rating(Google)": 2.6}}
,{"type": "Feature", "geometry": {"type": "Point", "coordinates": [-98.503, 29.355]}, "properties": {"Name": "Rolando's Super Taco", "Address": "93 Shasta Ave, San Antonio, TX 78221, USA", "Zip": "78221", "Price_Level(Google)": 1.0, "Rating(Google)": 4.5}}
,{"type": "Feature", "geometry": {"type": "Point", "coordinates": [-98.5, 29.508]}, "properties": {"Name": "Taco Bell", "Address": "7009 San Pedro Ave, San Antonio, TX 78216, USA", "Zip": "78216", "Price_Level(Google)": 1.0, "Rating(Google)": 3.7}}
,{"type": "Feature", "geometry": {"type": "Point", "coordinates": [-98.472, 29.454]}, "properties": {"Name": "Taco Cabana", "Address": "2908 Broadway St, San Antonio, TX 78209, USA", "Zip": "78209", "Price_Level(Google)": 1.0, "Rating(Google)": 3.6}}
,{"type": "Feature", "geometry": {"type": "Point", "coordinates": [-98.47, 29.442]}, "properties": {"Name": "Taco La Gardenia", "Address": "1805 N Pine St, San Antonio, TX 78208, USA", "Zip": "78208", "Price_Level(Google)": 0.0, "Rating(Google)": 4.4}}
,{"type": "Feature", "geometry": {"type": "Point", "coordinates": [-98.513, 29.452]}, "properties": {"Name": "Garcia's Mexican Food To Go", "Address": "842 Fredericksburg Rd, San Antonio, TX 78201, USA", "Zip": "78201", "Price_Level(Google)": 2.0, "Rating(Google)": 4.6}}
,{"type": "Feature", "geometry": {"type": "Point", "coordinates": [-98.556, 29.457]}, "properties": {"Name": "Taco Bell", "Address": "923 Bandera Rd, San Antonio, TX 78228, USA", "Zip": "78228", "Price_Level(Google)": 1.0, "Rating(Google)": 3.9}}
,{"type": "Feature", "geometry": {"type": "Point", "coordinates": [-98.507, 29.611]}, "properties": {"Name": "Que Taco", "Address": "18360 Blanco Rd #116, San Antonio, TX 78258, USA", "Zip": "78258", "Price_Level(Google)": 1.0, "Rating(Google)": 3.5}}
,{"type": "Feature", "geometry": {"type": "Point", "coordinates": [-98.38, 29.509]}, "properties": {"Name": "Cristan's Tacos", "Address": "8054 Midcrown Dr, San Antonio, TX 78218, USA", "Zip": "78218", "Price_Level(Google)": 0.0, "Rating(Google)": 4.7}}
,{"type": "Feature", "geometry": {"type": "Point", "coordinates": [-98.499, 29.499]}, "properties": {"Name": "Taco Riendo", "Address": "7215, 6624 San Pedro Ave, San Antonio, TX 78216, United States", "Zip": "78216", "Price_Level(Google)": 0.0, "Rating(Google)": 4.1}}
,{"type": "Feature", "geometry": {"type": "Point", "coordinates": [-98.473, 29.392]}, "properties": {"Name": "Patty's Taco House", "Address": "2422 S Hackberry St, San Antonio, TX 78210, USA", "Zip": "78210", "Price_Level(Google)": 2.0, "Rating(Google)": 4.3}}
,{"type": "Feature", "geometry": {"type": "Point", "coordinates": [-98.5, 29.517]}, "properties": {"Name": "Taco Cabana", "Address": "7339 San Pedro Ave, San Antonio, TX 78216, USA", "Zip": "78216", "Price_Level(Google)": 1.0, "Rating(Google)": 3.8}}
,{"type": "Feature", "geometry": {"type": "Point", "coordinates": [-98.573, 29.52]}, "properties": {"Name": "Taco Cabana", "Address": "8516 Fredericksburg Rd, San Antonio, TX 78229, USA", "Zip": "78229", "Price_Level(Google)": 1.0, "Rating(Google)": 3.6}}
,{"type": "Feature", "geometry": {"type": "Point", "coordinates": [-98.399, 29.463]}, "properties": {"Name": "Little Taco Factory", "Address": "4706 Seguin Rd, San Antonio, TX 78219, USA", "Zip": "78219", "Price_Level(Google)": 0.0, "Rating(Google)": 4.1}}
,{"type": "Feature", "geometry": {"type": "Point", "coordinates": [-98.404, 29.391]}, "properties": {"Name": "Teodora's Mini Taco", "Address": "2204 S WW White Rd, San Antonio, TX 78222, USA", "Zip": "78222", "Price_Level(Google)": 0.0, "Rating(Google)": 4.4}}
,{"type": "Feature", "geometry": {"type": "Point", "coordinates": [-98.616, 29.468]}, "properties": {"Name": "Los Balito's Taco Shop", "Address": "6446 NW Loop 410, San Antonio, TX 78238, USA", "Zip": "78238", "Price_Level(Google)": 1.0, "Rating(Google)": 4.0}}
,{"type": "Feature", "geometry": {"type": "Point", "coordinates": [-98.625, 29.576]}, "properties": {"Name": "Chela's Tacos", "Address": "1516, 14530 Roadrunner Way, San Antonio, TX 78249, United States", "Zip": "78249", "Price_Level(Google)": 0.0, "Rating(Google)": 4.0}}
,{"type": "Feature", "geometry": {"type": "Point", "coordinates": [-98.61, 29.375]}, "properties": {"Name": "Yorky's Taco House", "Address": "5418 W Military Dr, San Antonio, TX 78242, USA", "Zip": "78242", "Price_Level(Google)": 0.0, "Rating(Google)": 4.4}}
,{"type": "Feature", "geometry": {"type": "Point", "coordinates": [-98.515, 29.397]}, "properties": {"Name": "Rosa's Tacos To Go", "Address": "1721 Nogalitos St, San Antonio, TX 78225, USA", "Zip": "78225", "Price_Level(Google)": 0.0, "Rating(Google)": 4.1}}
,{"type": "Feature", "geometry": {"type": "Point", "coordinates": [-98.438, 29.661]}, "properties": {"Name": "Los Balito's Taco Shop", "Address": "3111 TPC Pkwy #101, San Antonio, TX 78259, USA", "Zip": "78259", "Price_Level(Google)": 0.0, "Rating(Google)": 3.8}}
,{"type": "Feature", "geometry": {"type": "Point", "coordinates": [-98.549, 29.395]}, "properties": {"Name": "Rocky's Taco House", "Address": "1302 Cupples Rd, San Antonio, TX 78226, USA", "Zip": "78226", "Price_Level(Google)": 2.0, "Rating(Google)": 3.6}}
,{"type": "Feature", "geometry": {"type": "Point", "coordinates": [-98.565, 29.43]}, "properties": {"Name": "Roy's Taco Hut", "Address": "246 W Old US Hwy 90, San Antonio, TX 78237, USA", "Zip": "78237", "Price_Level(Google)": 0.0, "Rating(Google)": 4.3}}
,{"type": "Feature", "geometry": {"type": "Point", "coordinates": [-98.54, 29.451]}, "properties": {"Name": "Mimi's Barbacoa Tacos Tamales Y Mas", "Address": "1901 Cincinnati Ave, San Antonio, TX 78228, USA", "Zip": "78228", "Price_Level(Google)": 0.0, "Rating(Google)": 3.9}}
,{"type": "Feature", "geometry": {"type": "Point", "coordinates": [-98.486, 29.356]}, "properties": {"Name": "Taco Cabana", "Address": "920 SE Military Dr, San Antonio, TX 78214, USA", "Zip": "78214", "Price_Level(Google)": 1.0, "Rating(Google)": 3.0}}
,{"type": "Feature", "geometry": {"type": "Point", "coordinates": [-98.452, 29.438]}, "properties": {"Name": "Taco Bell", "Address": "722 Seguin St, San Antonio, TX 78208, USA", "Zip": "78208", "Price_Level(Google)": 1.0, "Rating(Google)": 4.0}}
,{"type": "Feature", "geometry": {"type": "Point", "coordinates": [-98.512, 29.385]}, "properties": {"Name": "Brothers Taco House", "Address": "375 Hawthorne St, San Antonio, TX 78214, USA", "Zip": "78214", "Price_Level(Google)": 0.0, "Rating(Google)": 4.3}}
,{"type": "Feature", "geometry": {"type": "Point", "coordinates": [-98.457, 29.376]}, "properties": {"Name": "Taco Cabana", "Address": "2347 E Southcross, San Antonio, TX 78223, USA", "Zip": "78223", "Price_Level(Google)": 1.0, "Rating(Google)": 3.6}}
,{"type": "Feature", "geometry": {"type": "Point", "coordinates": [-98.401, 29.484]}, "properties": {"Name": "Taco Cabana", "Address": "4622 Rittiman Rd, San Antonio, TX 78218, USA", "Zip": "78218", "Price_Level(Google)": 1.0, "Rating(Google)": 3.3}}
,{"type": "Feature", "geometry": {"type": "Point", "coordinates": [-98.428, 29.448]}, "properties": {"Name": "Lil' Jonnys Taco House", "Address": "3601 N PanAm Expy, San Antonio, TX 78219, USA", "Zip": "78219", "Price_Level(Google)": 0.0, "Rating(Google)": 4.1}}
,{"type": "Feature", "geometry": {"type": "Point", "coordinates": [-98.628, 29.403]}, "properties": {"Name": "Taco Cabana", "Address": "6867 W US Hwy 90, San Antonio, TX 78227, USA", "Zip": "78227", "Price_Level(Google)": 1.0, "Rating(Google)": 3.6}}
,{"type": "Feature", "geometry": {"type": "Point", "coordinates": [-98.706, 29.488]}, "properties": {"Name": "Los Balito's Taco Shop", "Address": "5630 W Loop 1604 N #116, San Antonio, TX 78251, USA", "Zip": "78251", "Price_Level(Google)": 0.0, "Rating(Google)": 4.4}}
,{"type": "Feature", "geometry": {"type": "Point", "coordinates": [-98.484, 29.424]}, "properties": {"Name": "Taco Bell", "Address": "849 E Commerce St, San Antonio, TX 78205, USA", "Zip": "78205", "Price_Level(Google)": 1.0, "Rating(Google)": 3.3}}
,{"type": "Feature", "geometry": {"type": "Point", "coordinates": [-98.449, 29.517]}, "properties": {"Name": "Taco Cabana", "Address": "1255 NE Interstate 410 Loop, San Antonio, TX 78209, USA", "Zip": "78209", "Price_Level(Google)": 1.0, "Rating(Google)": 3.8}}
,{"type": "Feature", "geometry": {"type": "Point", "coordinates": [-98.395, 29.511]}, "properties": {"Name": "Taco Cabana", "Address": "8105 Fourwinds Dr, San Antonio, TX 78239, USA", "Zip": "78239", "Price_Level(Google)": 1.0, "Rating(Google)": 3.7}}
,{"type": "Feature", "geometry": {"type": "Point", "coordinates": [-98.493, 29.628]}, "properties": {"Name": "Guero's Taco Diner", "Address": "20323 Huebner Rd #111, San Antonio, TX 78258, USA", "Zip": "78258", "Price_Level(Google)": 0.0, "Rating(Google)": 4.6}}
,{"type": "Feature", "geometry": {"type": "Point", "coordinates": [-98.475, 29.447]}, "properties": {"Name": "Carmelitas Mexican Restaurant", "Address": "2218 Broadway St, San Antonio, TX 78215, USA", "Zip": "78215", "Price_Level(Google)": 0.0, "Rating(Google)": 3.8}}
,{"type": "Feature", "geometry": {"type": "Point", "coordinates": [-98.405, 29.553]}, "properties": {"Name": "L Taco Nacogdoches Rd.", "Address": "12311 Nacogdoches Rd #104, San Antonio, TX 78217, USA", "Zip": "78217", "Price_Level(Google)": 0.0, "Rating(Google)": 4.0}}
,{"type": "Feature", "geometry": {"type": "Point", "coordinates": [-98.669, 29.553]}, "properties": {"Name": "Taco Cabana", "Address": "11707 TX-1604 Loop, San Antonio, TX 78254, USA", "Zip": "78254", "Price_Level(Google)": 1.0, "Rating(Google)": 3.4}}
,{"type": "Feature", "geometry": {"type": "Point", "coordinates": [-98.588, 29.565]}, "properties": {"Name": "Taco Bell", "Address": "5211 De Zavala Rd, San Antonio, TX 78249, USA", "Zip": "78249", "Price_Level(Google)": 1.0, "Rating(Google)": 2.2}}
,{"type": "Feature", "geometry": {"type": "Point", "coordinates": [-98.486, 29.389]}, "properties": {"Name": "Benny's Tacos", "Address": "1439 Roosevelt Ave, San Antonio, TX 78210, USA", "Zip": "78210", "Price_Level(Google)": 0.0, "Rating(Google)": 4.2}}
,{"type": "Feature", "geometry": {"type": "Point", "coordinates": [-98.473, 29.42]}, "properties": {"Name": "Amaya's Cocina", "Address": "1502 E Commerce St, San Antonio, TX 78205, USA", "Zip": "78205", "Price_Level(Google)": 0.0, "Rating(Google)": 4.7}}
,{"type": "Feature", "geometry": {"type": "Point", "coordinates": [-98.511, 29.388]}, "properties": {"Name": "Taco Cabana", "Address": "543 W Malone Ave, San Antonio, TX 78214, USA", "Zip": "78214", "Price_Level(Google)": 1.0, "Rating(Google)": 3.6}}
,{"type": "Feature", "geometry": {"type": "Point", "coordinates": [-98.438, 29.368]}, "properties": {"Name": "Rocky's Taco House", "Address": "1938 Dollarhide Ave, San Antonio, TX 78223, USA", "Zip": "78223", "Price_Level(Google)": 2.0, "Rating(Google)": 3.7}}
,{"type": "Feature", "geometry": {"type": "Point", "coordinates": [-98.44, 29.365]}, "properties": {"Name": "Taco Bell", "Address": "2110 Goliad Rd, San Antonio, TX 78223, USA", "Zip": "78223", "Price_Level(Google)": 1.0, "Rating(Google)": 2.6}}
,{"type": "Feature", "geometry": {"type": "Point", "coordinates": [-98.391, 29.399]}, "properties": {"Name": "Taco Cabana", "Address": "5115 Rigsby Ave, San Antonio, TX 78222, USA", "Zip": "78222", "Price_Level(Google)": 1.0, "Rating(Google)": 3.4}}
,{"type": "Feature", "geometry": {"type": "Point", "coordinates": [-98.386, 29.399]}, "properties": {"Name": "Taco Bell", "Address": "5315 Rigsby Ave, San Antonio, TX 78222, USA", "Zip": "78222", "Price_Level(Google)": 1.0, "Rating(Google)": 2.9}}
,{"type": "Feature", "geometry": {"type": "Point", "coordinates": [-98.491, 29.414]}, "properties": {"Name": "Tito's Mexican Restaurant", "Address": "955 S Alamo St, San Antonio, TX 78205, USA", "Zip": "78205", "Price_Level(Google)": 1.0, "Rating(Google)": 4.1}}
,{"type": "Feature", "geometry": {"type": "Point", "coordinates": [-98.498, 29.356]}, "properties": {"Name": "Taco Bell", "Address": "414 SW Military Dr, San Antonio, TX 78221, USA", "Zip": "78221", "Price_Level(Google)": 1.0, "Rating(Google)": 4.2}}
,{"type": "Feature", "geometry": {"type": "Point", "coordinates": [-98.557, 29.399]}, "properties": {"Name": "Taco Bell", "Address": "1770 S General McMullen Dr, San Antonio, TX 78237, USA", "Zip": "78237", "Price_Level(Google)": 1.0, "Rating(Google)": 3.9}}
,{"type": "Feature", "geometry": {"type": "Point", "coordinates": [-98.547, 29.357]}, "properties": {"Name": "Taco Bell", "Address": "3006 SW Military Dr, San Antonio, TX 78224, USA", "Zip": "78224", "Price_Level(Google)": 1.0, "Rating(Google)": 4.1}}
,{"type": "Feature", "geometry": {"type": "Point", "coordinates": [-98.399, 29.484]}, "properties": {"Name": "Taco Bell", "Address": "4714 Rittiman Rd, San Antonio, TX 78218, USA", "Zip": "78218", "Price_Level(Google)": 1.0, "Rating(Google)": 3.8}}
,{"type": "Feature", "geometry": {"type": "Point", "coordinates": [-98.564, 29.528]}, "properties": {"Name": "Taco Bell", "Address": "9300 Wurzbach Rd, San Antonio, TX 78240, USA", "Zip": "78240", "Price_Level(Google)": 1.0, "Rating(Google)": 3.5}}
,{"type": "Feature", "geometry": {"type": "Point", "coordinates": [-98.499, 29.425]}, "properties": {"Name": "Viva Villa Taqueria", "Address": "905 Dolorosa, San Antonio, TX 78207, USA", "Zip": "78207", "Price_Level(Google)": 1.0, "Rating(Google)": 4.1}}
,{"type": "Feature", "geometry": {"type": "Point", "coordinates": [-98.512, 29.551]}, "properties": {"Name": "Taco Bell", "Address": "12050 Blanco Rd, San Antonio, TX 78216, USA", "Zip": "78216", "Price_Level(Google)": 1.0, "Rating(Google)": 2.9}}
,{"type": "Feature", "geometry": {"type": "Point", "coordinates": [-98.622, 29.462]}, "properties": {"Name": "Taco Bell", "Address": "6808 NW Loop 410, San Antonio, TX 78238, USA", "Zip": "78238", "Price_Level(Google)": 1.0, "Rating(Google)": 3.7}}
,{"type": "Feature", "geometry": {"type": "Point", "coordinates": [-98.586, 29.507]}, "properties": {"Name": "Taco Bell", "Address": "2501 Babcock Rd, San Antonio, TX 78229, USA", "Zip": "78229", "Price_Level(Google)": 1.0, "Rating(Google)": 3.3}}
,{"type": "Feature", "geometry": {"type": "Point", "coordinates": [-98.473, 29.409]}, "properties": {"Name": "Taqueria Vallarta #2", "Address": "1430 E C\u00e9sar E. Ch\u00e1vez Blvd, San Antonio, TX 78210, USA", "Zip": "78210", "Price_Level(Google)": 0.0, "Rating(Google)": 4.1}}
,{"type": "Feature", "geometry": {"type": "Point", "coordinates": [-98.646, 29.465]}, "properties": {"Name": "Taco Cabana", "Address": "8030 Culebra Rd, San Antonio, TX 78251, USA", "Zip": "78251", "Price_Level(Google)": 1.0, "Rating(Google)": 3.3}}
,{"type": "Feature", "geometry": {"type": "Point", "coordinates": [-98.383, 29.569]}, "properties": {"Name": "Taco Bell", "Address": "14076 Nacogdoches Rd, San Antonio, TX 78247, USA", "Zip": "78247", "Price_Level(Google)": 1.0, "Rating(Google)": 3.4}}
,{"type": "Feature", "geometry": {"type": "Point", "coordinates": [-98.621, 29.498]}, "properties": {"Name": "Taco Bell", "Address": "6815 Bandera Rd, San Antonio, TX 78238, USA", "Zip": "78238", "Price_Level(Google)": 1.0, "Rating(Google)": 3.6}}
,{"type": "Feature", "geometry": {"type": "Point", "coordinates": [-98.654, 29.417]}, "properties": {"Name": "Taco Bell", "Address": "8288 Marbach Rd, San Antonio, TX 78227, USA", "Zip": "78227", "Price_Level(Google)": 1.0, "Rating(Google)": 3.9}}
,{"type": "Feature", "geometry": {"type": "Point", "coordinates": [-98.639, 29.382]}, "properties": {"Name": "Taco Bell", "Address": "319 Valley Hi Dr, San Antonio, TX 78227, USA", "Zip": "78227", "Price_Level(Google)": 1.0, "Rating(Google)": 3.9}}
,{"type": "Feature", "geometry": {"type": "Point", "coordinates": [-98.463, 29.476]}, "properties": {"Name": "Chela's Tacos Mexican Restaurant", "Address": "5231 Broadway St #117, Alamo Heights, TX 78209, USA", "Zip": "78209", "Price_Level(Google)": 0.0, "Rating(Google)": 4.5}}
,{"type": "Feature", "geometry": {"type": "Point", "coordinates": [-98.504, 29.403]}, "properties": {"Name": "My Little Taco House", "Address": "2125 S Flores St, San Antonio, TX 78204, USA", "Zip": "78204", "Price_Level(Google)": 0.0, "Rating(Google)": 4.1}}
,{"type": "Feature", "geometry": {"type": "Point", "coordinates": [-98.504, 29.398]}, "properties": {"Name": "Taco House", "Address": "2600 S Flores St, San Antonio, TX 78204, USA", "Zip": "78204", "Price_Level(Google)": 0.0, "Rating(Google)": 0.0}}
,{"type": "Feature", "geometry": {"type": "Point", "coordinates": [-98.511, 29.401]}, "properties": {"Name": "Tommy's Restaurant", "Address": "1205 Nogalitos St, San Antonio, TX 78204, USA", "Zip": "78204", "Price_Level(Google)": 2.0, "Rating(Google)": 4.2}}
,{"type": "Feature", "geometry": {"type": "Point", "coordinates": [-98.51, 29.402]}, "properties": {"Name": "Maria's Cafe", "Address": "1105 Nogalitos St, San Antonio, TX 78204, USA", "Zip": "78204", "Price_Level(Google)": 0.0, "Rating(Google)": 4.7}}
,{"type": "Feature", "geometry": {"type": "Point", "coordinates": [-98.495, 29.424]}, "properties": {"Name": "Tommy's Restaurant", "Address": "107 S Flores St, San Antonio, TX 78204, USA", "Zip": "78204", "Price_Level(Google)": 0.0, "Rating(Google)": 3.9}}
,{"type": "Feature", "geometry": {"type": "Point", "coordinates": [-98.506, 29.412]}, "properties": {"Name": "Piedras Negras De Noche", "Address": "1312 S Laredo St, San Antonio, TX 78204, USA", "Zip": "78204", "Price_Level(Google)": 2.0, "Rating(Google)": 4.2}}
,{"type": "Feature", "geometry": {"type": "Point", "coordinates": [-98.569, 29.525]}, "properties": {"Name": "Tommy's Restaurant", "Address": "8823 Wurzbach Rd, San Antonio, TX 78240, USA", "Zip": "78240", "Price_Level(Google)": 2.0, "Rating(Google)": 4.4}}
,{"type": "Feature", "geometry": {"type": "Point", "coordinates": [-98.513, 29.399]}, "properties": {"Name": "Viva Vegeria", "Address": "1422 Nogalitos St, San Antonio, TX 78204, USA", "Zip": "78204", "Price_Level(Google)": 1.0, "Rating(Google)": 4.5}}
,{"type": "Feature", "geometry": {"type": "Point", "coordinates": [-98.594, 29.577]}, "properties": {"Name": "Taco Palenque UTSA", "Address": "13719 I-10, San Antonio, TX 78249, USA", "Zip": "78249", "Price_Level(Google)": 0.0, "Rating(Google)": 4.2}}
,{"type": "Feature", "geometry": {"type": "Point", "coordinates": [-98.393, 29.528]}, "properties": {"Name": "Saint City Tacos", "Address": "9735 N IH 35, Ste 2, San Antonio, TX 78233, United States", "Zip": "78233", "Price_Level(Google)": 0.0, "Rating(Google)": 3.9}}
,{"type": "Feature", "geometry": {"type": "Point", "coordinates": [-98.49, 29.415]}, "properties": {"Name": "Rosario's", "Address": "910 S Alamo St, San Antonio, TX 78205, USA", "Zip": "78205", "Price_Level(Google)": 1.0, "Rating(Google)": 4.3}}
,{"type": "Feature", "geometry": {"type": "Point", "coordinates": [-98.537, 29.421]}, "properties": {"Name": "Ray's Drive Inn", "Address": "822 SW 19th St, San Antonio, TX 78207, USA", "Zip": "78207", "Price_Level(Google)": 2.0, "Rating(Google)": 4.2}}
,{"type": "Feature", "geometry": {"type": "Point", "coordinates": [-98.491, 29.428]}, "properties": {"Name": "The Original Blanco Cafe", "Address": "419 N St Mary's St, San Antonio, TX 78205, USA", "Zip": "78205", "Price_Level(Google)": 1.0, "Rating(Google)": 4.3}}
,{"type": "Feature", "geometry": {"type": "Point", "coordinates": [-98.488, 29.424]}, "properties": {"Name": "The Original Mexican Restaurant", "Address": "528 River Walk St, San Antonio, TX 78205, USA", "Zip": "78205", "Price_Level(Google)": 2.0, "Rating(Google)": 3.1}}
,{"type": "Feature", "geometry": {"type": "Point", "coordinates": [-98.492, 29.426]}, "properties": {"Name": "Acenar Mexican Restaurant", "Address": "146 E Houston St, San Antonio, TX 78205, USA", "Zip": "78205", "Price_Level(Google)": 2.0, "Rating(Google)": 4.1}}
,{"type": "Feature", "geometry": {"type": "Point", "coordinates": [-98.493, 29.424]}, "properties": {"Name": "La Jalisco", "Address": "130 Main Plaza, San Antonio, TX 78205, USA", "Zip": "78205", "Price_Level(Google)": 0.0, "Rating(Google)": 4.2}}
,{"type": "Feature", "geometry": {"type": "Point", "coordinates": [-98.49, 29.425]}, "properties": {"Name": "Rita's On the River", "Address": "245 E Commerce St, San Antonio, TX 78205, USA", "Zip": "78205", "Price_Level(Google)": 2.0, "Rating(Google)": 3.1}}
,{"type": "Feature", "geometry": {"type": "Point", "coordinates": [-98.493, 29.425]}, "properties": {"Name": "Mexican Manhattan", "Address": "110 Soledad St, San Antonio, TX 78205, USA", "Zip": "78205", "Price_Level(Google)": 0.0, "Rating(Google)": 3.9}}
,{"type": "Feature", "geometry": {"type": "Point", "coordinates": [-98.488, 29.424]}, "properties": {"Name": "Casa Rio", "Address": "430 E Commerce St, San Antonio, TX 78205, USA", "Zip": "78205", "Price_Level(Google)": 2.0, "Rating(Google)": 3.9}}
,{"type": "Feature", "geometry": {"type": "Point", "coordinates": [-98.493, 29.428]}, "properties": {"Name": "Lula's Mexican Cafe", "Address": "115 E Travis St #104, San Antonio, TX 78205, USA", "Zip": "78205", "Price_Level(Google)": 2.0, "Rating(Google)": 4.8}}
,{"type": "Feature", "geometry": {"type": "Point", "coordinates": [-98.489, 29.415]}, "properties": {"Name": "Cascabel Mexican Patio", "Address": "1000 S St Mary's St, San Antonio, TX 78205, USA", "Zip": "78205", "Price_Level(Google)": 1.0, "Rating(Google)": 4.4}}
,{"type": "Feature", "geometry": {"type": "Point", "coordinates": [-98.497, 29.426]}, "properties": {"Name": "Cafe Alameda", "Address": "342 W Houston St, San Antonio, TX 78205, USA", "Zip": "78205", "Price_Level(Google)": 0.0, "Rating(Google)": 4.3}}
,{"type": "Feature", "geometry": {"type": "Point", "coordinates": [-98.484, 29.423]}, "properties": {"Name": "Maria Mia Mexican Bistro", "Address": "849 E Commerce St, San Antonio, TX 78205, USA", "Zip": "78205", "Price_Level(Google)": 0.0, "Rating(Google)": 3.2}}
,{"type": "Feature", "geometry": {"type": "Point", "coordinates": [-98.488, 29.422]}, "properties": {"Name": "Guadalajara Grill", "Address": "301 S Alamo St, San Antonio, TX 78205, USA", "Zip": "78205", "Price_Level(Google)": 2.0, "Rating(Google)": 3.2}}
,{"type": "Feature", "geometry": {"type": "Point", "coordinates": [-98.488, 29.425]}, "properties": {"Name": "La Paloma Riverwalk", "Address": "215 Losoya St, San Antonio, TX 78205, USA", "Zip": "78205", "Price_Level(Google)": 2.0, "Rating(Google)": 2.3}}
,{"type": "Feature", "geometry": {"type": "Point", "coordinates": [-98.485, 29.424]}, "properties": {"Name": "Margaritaville Restaurant San Antonio", "Address": "849 E Commerce St, San Antonio, TX 78205, USA", "Zip": "78205", "Price_Level(Google)": 0.0, "Rating(Google)": 3.4}}
,{"type": "Feature", "geometry": {"type": "Point", "coordinates": [-98.457, 29.388]}, "properties": {"Name": "Taco Haven", "Address": "3119 S Gevers St, San Antonio, TX 78210, USA", "Zip": "78210", "Price_Level(Google)": 1.0, "Rating(Google)": 4.2}}
,{"type": "Feature", "geometry": {"type": "Point", "coordinates": [-98.492, 29.427]}, "properties": {"Name": "Zocalo Mio", "Address": "175 E Houston St #115, San Antonio, TX 78205, USA", "Zip": "78205", "Price_Level(Google)": 0.0, "Rating(Google)": 4.6}}
,{"type": "Feature", "geometry": {"type": "Point", "coordinates": [-98.507, 29.521]}, "properties": {"Name": "Guajillo's", "Address": "1001 NW Loop 410, San Antonio, TX 78213, USA", "Zip": "78213", "Price_Level(Google)": 1.0, "Rating(Google)": 4.2}}
,{"type": "Feature", "geometry": {"type": "Point", "coordinates": [-98.488, 29.43]}, "properties": {"Name": "Pharm Table", "Address": "inside Radius Building, 106 Auditorium Cir, San Antonio, TX 78205, United States", "Zip": "78205", "Price_Level(Google)": 2.0, "Rating(Google)": 4.5}}
,{"type": "Feature", "geometry": {"type": "Point", "coordinates": [-98.646, 29.467]}, "properties": {"Name": "Taco Jalisco Authentic Mexican Restaurant Jalisco Style", "Address": "8099 Culebra Rd, San Antonio, TX 78251, USA", "Zip": "78251", "Price_Level(Google)": 1.0, "Rating(Google)": 3.9}}
,{"type": "Feature", "geometry": {"type": "Point", "coordinates": [-98.494, 29.424]}, "properties": {"Name": "Poblanos On Main", "Address": "115 S Main Plaza, San Antonio, TX 78205, USA", "Zip": "78205", "Price_Level(Google)": 0.0, "Rating(Google)": 4.4}}
,{"type": "Feature", "geometry": {"type": "Point", "coordinates": [-98.441, 29.491]}, "properties": {"Name": "Taco Bell", "Address": "1327 Austin Hwy, San Antonio, TX 78209, USA", "Zip": "78209", "Price_Level(Google)": 1.0, "Rating(Google)": 3.9}}
,{"type": "Feature", "geometry": {"type": "Point", "coordinates": [-98.429, 29.485]}, "properties": {"Name": "Teka Molino", "Address": "1007 Rittiman Rd, San Antonio, TX 78218, USA", "Zip": "78218", "Price_Level(Google)": 0.0, "Rating(Google)": 4.4}}
,{"type": "Feature", "geometry": {"type": "Point", "coordinates": [-98.5, 29.515]}, "properties": {"Name": "Teka Molino", "Address": "7231 San Pedro Ave, San Antonio, TX 78216, USA", "Zip": "78216", "Price_Level(Google)": 2.0, "Rating(Google)": 4.4}}
,{"type": "Feature", "geometry": {"type": "Point", "coordinates": [-98.499, 29.425]}, "properties": {"Name": "La Margarita Mexican Restaurant & Oyster Bar", "Address": "120 Produce Row, San Antonio, TX 78207, USA", "Zip": "78207", "Price_Level(Google)": 2.0, "Rating(Google)": 3.9}}
,{"type": "Feature", "geometry": {"type": "Point", "coordinates": [-98.512, 29.427]}, "properties": {"Name": "Las Delicias Tacos #1", "Address": "1603 W Commerce St #100, San Antonio, TX 78207, USA", "Zip": "78207", "Price_Level(Google)": 2.0, "Rating(Google)": 4.4}}
,{"type": "Feature", "geometry": {"type": "Point", "coordinates": [-98.513, 29.431]}, "properties": {"Name": "Speedy Tacos", "Address": "1927 W Martin St, San Antonio, TX 78207, USA", "Zip": "78207", "Price_Level(Google)": 0.0, "Rating(Google)": 4.5}}
,{"type": "Feature", "geometry": {"type": "Point", "coordinates": [-98.516, 29.427]}, "properties": {"Name": "Las Delicias Tacos #2", "Address": "1901 W Commerce St, San Antonio, TX 78207, USA", "Zip": "78207", "Price_Level(Google)": 0.0, "Rating(Google)": 4.2}}
,{"type": "Feature", "geometry": {"type": "Point", "coordinates": [-98.525, 29.443]}, "properties": {"Name": "Fajita Taco Place", "Address": "1502 N Zarzamora, San Antonio, TX 78207, USA", "Zip": "78207", "Price_Level(Google)": 0.0, "Rating(Google)": 0.0}}
,{"type": "Feature", "geometry": {"type": "Point", "coordinates": [-98.527, 29.424]}, "properties": {"Name": "Yatzil Mexican Restaurant", "Address": "502 S Zarzamora St, San Antonio, TX 78207, USA", "Zip": "78207", "Price_Level(Google)": 0.0, "Rating(Google)": 4.3}}
,{"type": "Feature", "geometry": {"type": "Point", "coordinates": [-98.53, 29.409]}, "properties": {"Name": "Panchito's Restaurants", "Address": "1705 S Zarzamora St, San Antonio, TX 78207, USA", "Zip": "78207", "Price_Level(Google)": 2.0, "Rating(Google)": 4.1}}
,{"type": "Feature", "geometry": {"type": "Point", "coordinates": [-98.5, 29.425]}, "properties": {"Name": "Mi Tierra Cafe y Panaderia", "Address": "218 Produce Row, San Antonio, TX 78207, USA", "Zip": "78207", "Price_Level(Google)": 2.0, "Rating(Google)": 4.2}}
,{"type": "Feature", "geometry": {"type": "Point", "coordinates": [-98.503, 29.425]}, "properties": {"Name": "Pico de Gallo", "Address": "111 S Leona St, San Antonio, TX 78207, USA", "Zip": "78207", "Price_Level(Google)": 2.0, "Rating(Google)": 4.0}}
,{"type": "Feature", "geometry": {"type": "Point", "coordinates": [-98.526, 29.442]}, "properties": {"Name": "Nick's Taco's And Catering", "Address": "1325 S Zarzamora St, San Antonio, TX 78207, USA", "Zip": "78207", "Price_Level(Google)": 0.0, "Rating(Google)": 4.4}}
,{"type": "Feature", "geometry": {"type": "Point", "coordinates": [-98.517, 29.418]}, "properties": {"Name": "Linda's Mexican Restaurant", "Address": "1424 Guadalupe St, San Antonio, TX 78207, USA", "Zip": "78207", "Price_Level(Google)": 0.0, "Rating(Google)": 4.2}}
,{"type": "Feature", "geometry": {"type": "Point", "coordinates": [-98.541, 29.43]}, "properties": {"Name": "El Siete Mares Seafood Restaurant", "Address": "3831 W Commerce St, San Antonio, TX 78207, USA", "Zip": "78207", "Price_Level(Google)": 1.0, "Rating(Google)": 4.1}}
,{"type": "Feature", "geometry": {"type": "Point", "coordinates": [-98.462, 29.438]}, "properties": {"Name": "Big Poppas Tacos", "Address": "2118 Interstate 35 Frontage Rd, San Antonio, TX 78208, USA", "Zip": "78208", "Price_Level(Google)": 0.0, "Rating(Google)": 4.0}}
,{"type": "Feature", "geometry": {"type": "Point", "coordinates": [-98.461, 29.441]}, "properties": {"Name": "Taqueria Chapala Jalisco", "Address": "1808 N New Braunfels Ave, San Antonio, TX 78208, USA", "Zip": "78208", "Price_Level(Google)": 0.0, "Rating(Google)": 4.0}}
,{"type": "Feature", "geometry": {"type": "Point", "coordinates": [-98.444, 29.489]}, "properties": {"Name": "Taco Cabana", "Address": "1253 Austin Hwy, San Antonio, TX 78209, USA", "Zip": "78209", "Price_Level(Google)": 1.0, "Rating(Google)": 4.1}}
,{"type": "Feature", "geometry": {"type": "Point", "coordinates": [-98.44, 29.491]}, "properties": {"Name": "Chapala Taco House", "Address": "1363 Austin Hwy, San Antonio, TX 78209, USA", "Zip": "78209", "Price_Level(Google)": 0.0, "Rating(Google)": 4.4}}
,{"type": "Feature", "geometry": {"type": "Point", "coordinates": [-98.466, 29.515]}, "properties": {"Name": "Taco Garage", "Address": "8403 Broadway St, San Antonio, TX 78209, USA", "Zip": "78209", "Price_Level(Google)": 2.0, "Rating(Google)": 4.1}}
,{"type": "Feature", "geometry": {"type": "Point", "coordinates": [-98.466, 29.513]}, "properties": {"Name": "Taqueria Vallarta", "Address": "8234 Broadway St, San Antonio, TX 78209, USA", "Zip": "78209", "Price_Level(Google)": 0.0, "Rating(Google)": 4.2}}
,{"type": "Feature", "geometry": {"type": "Point", "coordinates": [-98.5, 29.487]}, "properties": {"Name": "El Taco Grill", "Address": "5723 San Pedro Ave, San Antonio, TX 78212, USA", "Zip": "78212", "Price_Level(Google)": 0.0, "Rating(Google)": 4.2}}
,{"type": "Feature", "geometry": {"type": "Point", "coordinates": [-98.489, 29.497]}, "properties": {"Name": "L taco", "Address": "303 Rilla Vista Dr, San Antonio, TX 78216, USA", "Zip": "78216", "Price_Level(Google)": 0.0, "Rating(Google)": 1.5}}
,{"type": "Feature", "geometry": {"type": "Point", "coordinates": [-98.485, 29.453]}, "properties": {"Name": "El Milagrito Cafe", "Address": "521 E Woodlawn Ave, San Antonio, TX 78212, USA", "Zip": "78212", "Price_Level(Google)": 2.0, "Rating(Google)": 4.4}}
,{"type": "Feature", "geometry": {"type": "Point", "coordinates": [-98.486, 29.451]}, "properties": {"Name": "Tacos El Regio", "Address": "2726 N St Mary's St, San Antonio, TX 78212, USA", "Zip": "78212", "Price_Level(Google)": 0.0, "Rating(Google)": 4.5}}
,{"type": "Feature", "geometry": {"type": "Point", "coordinates": [-98.461, 29.403]}, "properties": {"Name": "El Gordo Tacos", "Address": "1624 S New Braunfels Ave, San Antonio, TX 78210, USA", "Zip": "78210", "Price_Level(Google)": 0.0, "Rating(Google)": 4.3}}
,{"type": "Feature", "geometry": {"type": "Point", "coordinates": [-98.455, 29.408]}, "properties": {"Name": "Mittman Fine Foods", "Address": "1125 S Mittman St, San Antonio, TX 78210, USA", "Zip": "78210", "Price_Level(Google)": 2.0, "Rating(Google)": 4.4}}
,{"type": "Feature", "geometry": {"type": "Point", "coordinates": [-98.486, 29.407]}, "properties": {"Name": "Las Tapatias De Jalisco", "Address": "1506 S St Mary's St, San Antonio, TX 78210, USA", "Zip": "78210", "Price_Level(Google)": 0.0, "Rating(Google)": 4.0}}
,{"type": "Feature", "geometry": {"type": "Point", "coordinates": [-98.479, 29.388]}, "properties": {"Name": "Arturo's Cafe", "Address": "3610 S Presa St, San Antonio, TX 78210, USA", "Zip": "78210", "Price_Level(Google)": 0.0, "Rating(Google)": 4.6}}
,{"type": "Feature", "geometry": {"type": "Point", "coordinates": [-98.535, 29.354]}, "properties": {"Name": "Mama Margie's Mexican Restaurant", "Address": "7335 S Zarzamora St, San Antonio, TX 78224, USA", "Zip": "78224", "Price_Level(Google)": 1.0, "Rating(Google)": 4.0}}
,{"type": "Feature", "geometry": {"type": "Point", "coordinates": [-98.519, 29.357]}, "properties": {"Name": "Taco Cabana", "Address": "1633 SW Military Dr, San Antonio, TX 78221, USA", "Zip": "78221", "Price_Level(Google)": 1.0, "Rating(Google)": 3.4}}
,{"type": "Feature", "geometry": {"type": "Point", "coordinates": [-98.553, 29.322]}, "properties": {"Name": "Taco Cabana", "Address": "9719 Poteet Jourdanton Fwy Ste 104, San Antonio, TX 78211, USA", "Zip": "78211", "Price_Level(Google)": 1.0, "Rating(Google)": 3.3}}
,{"type": "Feature", "geometry": {"type": "Point", "coordinates": [-98.521, 29.39]}, "properties": {"Name": "El Itacate Tacos", "Address": "2501 Nogalitos St, San Antonio, TX 78225, USA", "Zip": "78225", "Price_Level(Google)": 0.0, "Rating(Google)": 4.5}}
,{"type": "Feature", "geometry": {"type": "Point", "coordinates": [-98.504, 29.355]}, "properties": {"Name": "Rocky's Taco House", "Address": "2423 Pleasanton Rd, San Antonio, TX 78221, USA", "Zip": "78221", "Price_Level(Google)": 2.0, "Rating(Google)": 3.6}}
,{"type": "Feature", "geometry": {"type": "Point", "coordinates": [-98.55, 29.388]}, "properties": {"Name": "SA Taco Express", "Address": "2000 Cupples Rd, San Antonio, TX 78226, USA", "Zip": "78226", "Price_Level(Google)": 0.0, "Rating(Google)": 5.0}}
,{"type": "Feature", "geometry": {"type": "Point", "coordinates": [-98.553, 29.333]}, "properties": {"Name": "Taco Amanda's Mexican Restaurant", "Address": "1759 Palo Alto Rd, San Antonio, TX 78211, USA", "Zip": "78211", "Price_Level(Google)": 0.0, "Rating(Google)": 4.4}}
,{"type": "Feature", "geometry": {"type": "Point", "coordinates": [-98.504, 29.347]}, "properties": {"Name": "Rossy's Tacos", "Address": "3211 Pleasanton Rd, San Antonio, TX 78221, USA", "Zip": "78221", "Price_Level(Google)": 0.0, "Rating(Google)": 4.6}}
,{"type": "Feature", "geometry": {"type": "Point", "coordinates": [-98.56, 29.431]}, "properties": {"Name": "Tacos Martinez", "Address": "5034 W Commerce St, San Antonio, TX 78237, USA", "Zip": "78237", "Price_Level(Google)": 2.0, "Rating(Google)": 4.2}}
,{"type": "Feature", "geometry": {"type": "Point", "coordinates": [-98.566, 29.414]}, "properties": {"Name": "Tacos El Rey", "Address": "1821 Castroville Rd, San Antonio, TX 78237, USA", "Zip": "78237", "Price_Level(Google)": 0.0, "Rating(Google)": 4.2}}
,{"type": "Feature", "geometry": {"type": "Point", "coordinates": [-98.528, 29.382]}, "properties": {"Name": "Tila's Tacos & Tortas", "Address": "3407 Nogalitos St, San Antonio, TX 78225, USA", "Zip": "78225", "Price_Level(Google)": 0.0, "Rating(Google)": 4.4}}
,{"type": "Feature", "geometry": {"type": "Point", "coordinates": [-98.492, 29.468]}, "properties": {"Name": "Panchito's Restaurant", "Address": "4100 McCullough Ave, San Antonio, TX 78212, USA", "Zip": "78212", "Price_Level(Google)": 2.0, "Rating(Google)": 4.2}}
,{"type": "Feature", "geometry": {"type": "Point", "coordinates": [-98.492, 29.445]}, "properties": {"Name": "Regio Cafe", "Address": "1706 McCullough Ave #2, San Antonio, TX 78212, USA", "Zip": "78212", "Price_Level(Google)": 0.0, "Rating(Google)": 4.3}}
,{"type": "Feature", "geometry": {"type": "Point", "coordinates": [-98.526, 29.51]}, "properties": {"Name": "Tacos Chago", "Address": "4814 West Ave, San Antonio, TX 78213, USA", "Zip": "78213", "Price_Level(Google)": 0.0, "Rating(Google)": 4.7}}
,{"type": "Feature", "geometry": {"type": "Point", "coordinates": [-98.492, 29.504]}, "properties": {"Name": "El Taco Riendo", "Address": "7553 McCullough Ave, San Antonio, TX 78216, USA", "Zip": "78216", "Price_Level(Google)": 0.0, "Rating(Google)": 4.3}}
,{"type": "Feature", "geometry": {"type": "Point", "coordinates": [-98.512, 29.544]}, "properties": {"Name": "Ruthie's Mexican Restaurant", "Address": "11423 West Ave, San Antonio, TX 78213, USA", "Zip": "78213", "Price_Level(Google)": 2.0, "Rating(Google)": 4.4}}
,{"type": "Feature", "geometry": {"type": "Point", "coordinates": [-98.506, 29.549]}, "properties": {"Name": "Taco Rey Taqueria", "Address": "11825 West Ave #100, San Antonio, TX 78216, USA", "Zip": "78216", "Price_Level(Google)": 0.0, "Rating(Google)": 4.2}}
,{"type": "Feature", "geometry": {"type": "Point", "coordinates": [-98.536, 29.515]}, "properties": {"Name": "El Taco De Jalisco", "Address": "4407 Vance Jackson Rd, San Antonio, TX 78230, USA", "Zip": "78230", "Price_Level(Google)": 0.0, "Rating(Google)": 4.5}}
,{"type": "Feature", "geometry": {"type": "Point", "coordinates": [-98.51, 29.547]}, "properties": {"Name": "Taco Cabana", "Address": "11701 Blanco Rd, San Antonio, TX 78216, USA", "Zip": "78216", "Price_Level(Google)": 1.0, "Rating(Google)": 3.3}}
,{"type": "Feature", "geometry": {"type": "Point", "coordinates": [-98.552, 29.541]}, "properties": {"Name": "Mimi's Barbacoa Tacos Tamales", "Address": "10918 Wurzbach Rd # 134, San Antonio, TX 78230, USA", "Zip": "78230", "Price_Level(Google)": 2.0, "Rating(Google)": 4.2}}
,{"type": "Feature", "geometry": {"type": "Point", "coordinates": [-98.476, 29.579]}, "properties": {"Name": "Taco-Tex", "Address": "15104 San Pedro Ave, San Antonio, TX 78232, USA", "Zip": "78232", "Price_Level(Google)": 0.0, "Rating(Google)": 4.4}}
,{"type": "Feature", "geometry": {"type": "Point", "coordinates": [-98.504, 29.371]}, "properties": {"Name": "Claudia's Tacos Restaurant", "Address": "1305 Pleasanton Rd, San Antonio, TX 78214, USA", "Zip": "78214", "Price_Level(Google)": 0.0, "Rating(Google)": 4.5}}
,{"type": "Feature", "geometry": {"type": "Point", "coordinates": [-98.481, 29.444]}, "properties": {"Name": "La Gloria", "Address": "100 E Grayson St, San Antonio, TX 78215, USA", "Zip": "78215", "Price_Level(Google)": 2.0, "Rating(Google)": 3.8}}
,{"type": "Feature", "geometry": {"type": "Point", "coordinates": [-98.484, 29.429]}, "properties": {"Name": "Oasis Mexican Cafe", "Address": "210 McCullough Ave, San Antonio, TX 78215, USA", "Zip": "78215", "Price_Level(Google)": 0.0, "Rating(Google)": 4.1}}
,{"type": "Feature", "geometry": {"type": "Point", "coordinates": [-98.478, 29.442]}, "properties": {"Name": "Earl Abel's", "Address": "1639 Broadway St, San Antonio, TX 78215, USA", "Zip": "78215", "Price_Level(Google)": 2.0, "Rating(Google)": 3.5}}
,{"type": "Feature", "geometry": {"type": "Point", "coordinates": [-98.48, 29.443]}, "properties": {"Name": "Nao", "Address": "312 Pearl Pkwy, San Antonio, TX 78215, USA", "Zip": "78215", "Price_Level(Google)": 3.0, "Rating(Google)": 4.2}}
,{"type": "Feature", "geometry": {"type": "Point", "coordinates": [-98.48, 29.443]}, "properties": {"Name": "Boiler House Texas Grill & Wine Garden", "Address": "312 Pearl Pkwy, Bldg. 3, San Antonio, TX 78215, United States", "Zip": "78215", "Price_Level(Google)": 2.0, "Rating(Google)": 4.1}}
,{"type": "Feature", "geometry": {"type": "Point", "coordinates": [-98.485, 29.439]}, "properties": {"Name": "El Nogal Mexican Restaurant", "Address": "1605 N St Mary's St, San Antonio, TX 78215, USA", "Zip": "78215", "Price_Level(Google)": 0.0, "Rating(Google)": 4.5}}
,{"type": "Feature", "geometry": {"type": "Point", "coordinates": [-98.478, 29.444]}, "properties": {"Name": "Down On Grayson", "Address": "303 E Grayson St, San Antonio, TX 78215, USA", "Zip": "78215", "Price_Level(Google)": 2.0, "Rating(Google)": 4.2}}
,{"type": "Feature", "geometry": {"type": "Point", "coordinates": [-98.475, 29.443]}, "properties": {"Name": "Grayze", "Address": "521 E Grayson St, San Antonio, TX 78215, USA", "Zip": "78215", "Price_Level(Google)": 1.0, "Rating(Google)": 4.2}}
,{"type": "Feature", "geometry": {"type": "Point", "coordinates": [-98.477, 29.444]}, "properties": {"Name": "TNT / Tacos and Tequila", "Address": "1915 Broadway St, San Antonio, TX 78215, USA", "Zip": "78215", "Price_Level(Google)": 0.0, "Rating(Google)": 4.1}}
,{"type": "Feature", "geometry": {"type": "Point", "coordinates": [-98.484, 29.566]}, "properties": {"Name": "Taco Cabana", "Address": "180 W Bitters Rd, San Antonio, TX 78216, USA", "Zip": "78216", "Price_Level(Google)": 1.0, "Rating(Google)": 3.6}}
,{"type": "Feature", "geometry": {"type": "Point", "coordinates": [-98.475, 29.588]}, "properties": {"Name": "Taco Cabana", "Address": "15925 San Pedro Ave, San Antonio, TX 78232, USA", "Zip": "78232", "Price_Level(Google)": 1.0, "Rating(Google)": 3.5}}
,{"type": "Feature", "geometry": {"type": "Point", "coordinates": [-98.44, 29.576]}, "properties": {"Name": "Taco Cabana", "Address": "3003 Thousand Oaks, San Antonio, TX 78247, USA", "Zip": "78247", "Price_Level(Google)": 1.0, "Rating(Google)": 3.6}}
,{"type": "Feature", "geometry": {"type": "Point", "coordinates": [-98.502, 29.553]}, "properties": {"Name": "Tilo Mexican Restaurant", "Address": "12403 West Ave, San Antonio, TX 78216, USA", "Zip": "78216", "Price_Level(Google)": 0.0, "Rating(Google)": 3.5}}
,{"type": "Feature", "geometry": {"type": "Point", "coordinates": [-98.496, 29.628]}, "properties": {"Name": "Taco Cabana", "Address": "19231 Stone Oak Pkwy, San Antonio, TX 78258, USA", "Zip": "78258", "Price_Level(Google)": 1.0, "Rating(Google)": 3.5}}
,{"type": "Feature", "geometry": {"type": "Point", "coordinates": [-98.49, 29.531]}, "properties": {"Name": "My Little Taco House", "Address": "741 Isom Rd, San Antonio, TX 78216, USA", "Zip": "78216", "Price_Level(Google)": 0.0, "Rating(Google)": 4.1}}
,{"type": "Feature", "geometry": {"type": "Point", "coordinates": [-98.441, 29.578]}, "properties": {"Name": "Taco Bell", "Address": "2907 Thousand Oaks, San Antonio, TX 78247, USA", "Zip": "78247", "Price_Level(Google)": 1.0, "Rating(Google)": 3.2}}
,{"type": "Feature", "geometry": {"type": "Point", "coordinates": [-98.49, 29.565]}, "properties": {"Name": "Losoya's Mexican Restaurant", "Address": "13444 West Ave #100, San Antonio, TX 78216, USA", "Zip": "78216", "Price_Level(Google)": 0.0, "Rating(Google)": 4.6}}
,{"type": "Feature", "geometry": {"type": "Point", "coordinates": [-98.393, 29.579]}, "properties": {"Name": "Taco Express", "Address": "4963 Stahl Rd, San Antonio, TX 78217, USA", "Zip": "78217", "Price_Level(Google)": 0.0, "Rating(Google)": 4.5}}
,{"type": "Feature", "geometry": {"type": "Point", "coordinates": [-98.407, 29.55]}, "properties": {"Name": "Taco Cabana", "Address": "12030 Perrin Beitel Rd, San Antonio, TX 78217, USA", "Zip": "78217", "Price_Level(Google)": 1.0, "Rating(Google)": 3.2}}
,{"type": "Feature", "geometry": {"type": "Point", "coordinates": [-98.411, 29.519]}, "properties": {"Name": "Taco Bell", "Address": "8727 Perrin Beitel Rd, San Antonio, TX 78217, USA", "Zip": "78217", "Price_Level(Google)": 1.0, "Rating(Google)": 2.8}}
,{"type": "Feature", "geometry": {"type": "Point", "coordinates": [-98.366, 29.546]}, "properties": {"Name": "Taco Cabana", "Address": "11722 N Interstate 35 Frontage Rd, San Antonio, TX 78233, USA", "Zip": "78233", "Price_Level(Google)": 1.0, "Rating(Google)": 3.8}}
,{"type": "Feature", "geometry": {"type": "Point", "coordinates": [-98.392, 29.51]}, "properties": {"Name": "Benny's Tacos", "Address": "5050 Walzem Rd, San Antonio, TX 78218, USA", "Zip": "78218", "Price_Level(Google)": 1.0, "Rating(Google)": 4.1}}
,{"type": "Feature", "geometry": {"type": "Point", "coordinates": [-98.414, 29.541]}, "properties": {"Name": "Mr. Meximum - it's more than just a taco", "Address": "11031 Wye St, San Antonio, TX 78217, USA", "Zip": "78217", "Price_Level(Google)": 1.0, "Rating(Google)": 0.0}}
,{"type": "Feature", "geometry": {"type": "Point", "coordinates": [-98.399, 29.556]}, "properties": {"Name": "Taquitos Y Panaderia West Avenue", "Address": "12734 Nacogdoches Rd, San Antonio, TX 78217, USA", "Zip": "78217", "Price_Level(Google)": 0.0, "Rating(Google)": 4.4}}
,{"type": "Feature", "geometry": {"type": "Point", "coordinates": [-98.423, 29.54]}, "properties": {"Name": "Fidelo's Mexican Restaurant", "Address": "10929 Nacogdoches Rd, San Antonio, TX 78217, USA", "Zip": "78217", "Price_Level(Google)": 0.0, "Rating(Google)": 4.5}}
,{"type": "Feature", "geometry": {"type": "Point", "coordinates": [-98.418, 29.603]}, "properties": {"Name": "Taco Bell", "Address": "17822 Bulverde Rd, San Antonio, TX 78259, USA", "Zip": "78259", "Price_Level(Google)": 1.0, "Rating(Google)": 3.6}}
,{"type": "Feature", "geometry": {"type": "Point", "coordinates": [-98.373, 29.484]}, "properties": {"Name": "Salsa's Mexican Restaurant", "Address": "5929 Rittiman Rd, San Antonio, TX 78218, USA", "Zip": "78218", "Price_Level(Google)": 2.0, "Rating(Google)": 4.1}}
,{"type": "Feature", "geometry": {"type": "Point", "coordinates": [-98.397, 29.484]}, "properties": {"Name": "Taco Guadalajara Mexican Restaurant", "Address": "4838 Rittiman Rd, San Antonio, TX 78218, USA", "Zip": "78218", "Price_Level(Google)": 0.0, "Rating(Google)": 4.0}}
,{"type": "Feature", "geometry": {"type": "Point", "coordinates": [-98.407, 29.483]}, "properties": {"Name": "DOS ME\u00d1OS TACOS RESTAURANT AND MOLINO", "Address": "6019 Rittiman Plaza, San Antonio, TX 78218, USA", "Zip": "78218", "Price_Level(Google)": 0.0, "Rating(Google)": 5.0}}
,{"type": "Feature", "geometry": {"type": "Point", "coordinates": [-98.387, 29.51]}, "properties": {"Name": "Taco Bell", "Address": "5318 W Walzem Rd, San Antonio, TX 78218, USA", "Zip": "78218", "Price_Level(Google)": 1.0, "Rating(Google)": 3.9}}
,{"type": "Feature", "geometry": {"type": "Point", "coordinates": [-98.36, 29.482]}, "properties": {"Name": "Taco Guadalajara Mexican Restaurant", "Address": "6531 W Farm to Market Rd 78, San Antonio, TX 78244, USA", "Zip": "78244", "Price_Level(Google)": 0.0, "Rating(Google)": 3.9}}
,{"type": "Feature", "geometry": {"type": "Point", "coordinates": [-98.431, 29.485]}, "properties": {"Name": "Taqueria Cazadores Mexican Food & Seafood", "Address": "927 Rittiman Rd, San Antonio, TX 78209, USA", "Zip": "78209", "Price_Level(Google)": 2.0, "Rating(Google)": 4.4}}
,{"type": "Feature", "geometry": {"type": "Point", "coordinates": [-98.405, 29.511]}, "properties": {"Name": "El San Luis Mexican Restaurant", "Address": "4455 Walzem Rd, San Antonio, TX 78218, USA", "Zip": "78218", "Price_Level(Google)": 1.0, "Rating(Google)": 3.5}}
,{"type": "Feature", "geometry": {"type": "Point", "coordinates": [-98.397, 29.484]}, "properties": {"Name": "Mi taco Guadalajara", "Address": "4802 Goldfield, San Antonio, TX 78218, USA", "Zip": "78218", "Price_Level(Google)": 0.0, "Rating(Google)": 5.0}}
,{"type": "Feature", "geometry": {"type": "Point", "coordinates": [-98.39, 29.518]}, "properties": {"Name": "Taco Bell", "Address": "5318, 78218, Windcrest Dr, TX 78239, United States", "Zip": "78239", "Price_Level(Google)": 0.0, "Rating(Google)": 1.0}}
,{"type": "Feature", "geometry": {"type": "Point", "coordinates": [-98.406, 29.427]}, "properties": {"Name": "El TACO SUAVE", "Address": "225 S WW White Rd, San Antonio, TX 78219, USA", "Zip": "78219", "Price_Level(Google)": 0.0, "Rating(Google)": 5.0}}
,{"type": "Feature", "geometry": {"type": "Point", "coordinates": [-98.358, 29.482]}, "properties": {"Name": "Taco Bell", "Address": "6635 Seguin Rd, San Antonio, TX 78219, USA", "Zip": "78219", "Price_Level(Google)": 1.0, "Rating(Google)": 3.5}}
,{"type": "Feature", "geometry": {"type": "Point", "coordinates": [-98.394, 29.466]}, "properties": {"Name": "Lupita's Mexican Cafe Bar & Grill", "Address": "4950 W Farm to Market Rd 78, San Antonio, TX 78219, USA", "Zip": "78219", "Price_Level(Google)": 1.0, "Rating(Google)": 3.5}}
,{"type": "Feature", "geometry": {"type": "Point", "coordinates": [-98.409, 29.425]}, "properties": {"Name": "Teran's Cafe (Mexican Food Specialists)", "Address": "4403 E Houston St, San Antonio, TX 78220, USA", "Zip": "78220", "Price_Level(Google)": 0.0, "Rating(Google)": 4.4}}
,{"type": "Feature", "geometry": {"type": "Point", "coordinates": [-98.405, 29.429]}, "properties": {"Name": "Lazarita's Mexican Restaurant", "Address": "166 S WW White Rd, San Antonio, TX 78219, USA", "Zip": "78219", "Price_Level(Google)": 0.0, "Rating(Google)": 4.3}}
,{"type": "Feature", "geometry": {"type": "Point", "coordinates": [-98.406, 29.436]}, "properties": {"Name": "Frijoles Mexican Restaurant", "Address": "301 N Ww White Rd, San Antonio, TX 78219, USA", "Zip": "78219", "Price_Level(Google)": 0.0, "Rating(Google)": 4.0}}
,{"type": "Feature", "geometry": {"type": "Point", "coordinates": [-98.405, 29.41]}, "properties": {"Name": "Las Carnitas Mexican Restaurant", "Address": "1310 S WW White Rd, San Antonio, TX 78220, USA", "Zip": "78220", "Price_Level(Google)": 0.0, "Rating(Google)": 4.2}}
,{"type": "Feature", "geometry": {"type": "Point", "coordinates": [-98.405, 29.423]}, "properties": {"Name": "Lydia's Mexican Restaurant", "Address": "536 S WW White Rd, San Antonio, TX 78220, USA", "Zip": "78220", "Price_Level(Google)": 0.0, "Rating(Google)": 4.2}}
,{"type": "Feature", "geometry": {"type": "Point", "coordinates": [-98.419, 29.424]}, "properties": {"Name": "Laredo Taco Company", "Address": "4038 E Houston St, San Antonio, TX 78220, USA", "Zip": "78220", "Price_Level(Google)": 0.0, "Rating(Google)": 3.8}}
,{"type": "Feature", "geometry": {"type": "Point", "coordinates": [-98.336, 29.419]}, "properties": {"Name": "Henry's Mexican Restaurant", "Address": "7803 FM 1346, San Antonio, TX 78263, USA", "Zip": "78263", "Price_Level(Google)": 0.0, "Rating(Google)": 4.2}}
,{"type": "Feature", "geometry": {"type": "Point", "coordinates": [-98.406, 29.426]}, "properties": {"Name": "El Rodeo Mexican Grill #1 & #5", "Address": "319 S. W. W. White Road, 4223, San Antonio, TX 78219, United States", "Zip": "78219", "Price_Level(Google)": 0.0, "Rating(Google)": 4.1}}
,{"type": "Feature", "geometry": {"type": "Point", "coordinates": [-98.406, 29.405]}, "properties": {"Name": "Little Fish Factory", "Address": "1555 S WW White Rd, San Antonio, TX 78220, USA", "Zip": "78220", "Price_Level(Google)": 0.0, "Rating(Google)": 4.4}}
,{"type": "Feature", "geometry": {"type": "Point", "coordinates": [-98.405, 29.416]}, "properties": {"Name": "Mi Hacienda La Cocina", "Address": "922 S WW White Rd, San Antonio, TX 78220, USA", "Zip": "78220", "Price_Level(Google)": 0.0, "Rating(Google)": 3.5}}
,{"type": "Feature", "geometry": {"type": "Point", "coordinates": [-98.504, 29.347]}, "properties": {"Name": "Lisa's Tacos", "Address": "3211 Pleasanton Rd, San Antonio, TX 78221, USA", "Zip": "78221", "Price_Level(Google)": 0.0, "Rating(Google)": 4.5}}
,{"type": "Feature", "geometry": {"type": "Point", "coordinates": [-98.516, 29.345]}, "properties": {"Name": "Don Tony's Tacos Burgers y mas!!!", "Address": "3202 Commercial Ave, San Antonio, TX 78221, USA", "Zip": "78221", "Price_Level(Google)": 0.0, "Rating(Google)": 3.7}}
,{"type": "Feature", "geometry": {"type": "Point", "coordinates": [-98.477, 29.222]}, "properties": {"Name": "AV's Food to Go", "Address": "20110 US-281, San Antonio, TX 78221, USA", "Zip": "78221", "Price_Level(Google)": 0.0, "Rating(Google)": 4.3}}
,{"type": "Feature", "geometry": {"type": "Point", "coordinates": [-98.47, 29.609]}, "properties": {"Name": "Taco Bell", "Address": "1602 N Loop 1604 E, San Antonio, TX 78232, USA", "Zip": "78232", "Price_Level(Google)": 1.0, "Rating(Google)": 3.0}}
,{"type": "Feature", "geometry": {"type": "Point", "coordinates": [-98.517, 29.356]}, "properties": {"Name": "Don Pedro Mexican Restaurant", "Address": "1526 SW Military Dr, San Antonio, TX 78221, USA", "Zip": "78221", "Price_Level(Google)": 2.0, "Rating(Google)": 4.1}}
,{"type": "Feature", "geometry": {"type": "Point", "coordinates": [-98.507, 29.357]}, "properties": {"Name": "Taco Cabana", "Address": "920 SW Military Dr, San Antonio, TX 78221, USA", "Zip": "78221", "Price_Level(Google)": 1.0, "Rating(Google)": 0.0}}
,{"type": "Feature", "geometry": {"type": "Point", "coordinates": [-98.477, 29.321]}, "properties": {"Name": "Judy's Food To Go", "Address": "5510 Roosevelt Ave, San Antonio, TX 78214, USA", "Zip": "78214", "Price_Level(Google)": 0.0, "Rating(Google)": 4.2}}
,{"type": "Feature", "geometry": {"type": "Point", "coordinates": [-98.454, 29.64]}, "properties": {"Name": "Taco Bell", "Address": "21118 N. US Hwy 281, San Antonio, TX 78259, United States", "Zip": "78259", "Price_Level(Google)": 1.0, "Rating(Google)": 3.5}}
,{"type": "Feature", "geometry": {"type": "Point", "coordinates": [-98.496, 29.24]}, "properties": {"Name": "Everybody Loves Raymond's Tacos", "Address": "18600 Pleasanton Rd, San Antonio, TX 78221, USA", "Zip": "78221", "Price_Level(Google)": 0.0, "Rating(Google)": 4.1}}
,{"type": "Feature", "geometry": {"type": "Point", "coordinates": [-98.5, 29.224]}, "properties": {"Name": "Nando's Taco House", "Address": "19902 Pleasanton Rd, San Antonio, TX 78221, USA", "Zip": "78221", "Price_Level(Google)": 0.0, "Rating(Google)": 5.0}}
,{"type": "Feature", "geometry": {"type": "Point", "coordinates": [-98.443, 29.368]}, "properties": {"Name": "Patty's Taco House II", "Address": "1818 Goliad Rd, San Antonio, TX 78223, USA", "Zip": "78223", "Price_Level(Google)": 0.0, "Rating(Google)": 4.5}}
,{"type": "Feature", "geometry": {"type": "Point", "coordinates": [-98.453, 29.353]}, "properties": {"Name": "Tink-A-Tako (City Base)", "Address": "2511 SE Military Dr, San Antonio, TX 78223, USA", "Zip": "78223", "Price_Level(Google)": 0.0, "Rating(Google)": 3.6}}
,{"type": "Feature", "geometry": {"type": "Point", "coordinates": [-98.423, 29.355]}, "properties": {"Name": "Rancho Grande Mexican Restaurant", "Address": "3719 SE Military Dr, San Antonio, TX 78223, USA", "Zip": "78223", "Price_Level(Google)": 2.0, "Rating(Google)": 3.6}}
,{"type": "Feature", "geometry": {"type": "Point", "coordinates": [-98.652, 29.541]}, "properties": {"Name": "Metro Taco Stop", "Address": "10350 Bandera Rd #310, San Antonio, TX 78250, USA", "Zip": "78250", "Price_Level(Google)": 0.0, "Rating(Google)": 4.3}}
,{"type": "Feature", "geometry": {"type": "Point", "coordinates": [-98.638, 29.52]}, "properties": {"Name": "Taco Cabana", "Address": "8315 Bandera Rd, San Antonio, TX 78250, USA", "Zip": "78250", "Price_Level(Google)": 1.0, "Rating(Google)": 3.8}}
,{"type": "Feature", "geometry": {"type": "Point", "coordinates": [-98.632, 29.572]}, "properties": {"Name": "Ricky's Tacos", "Address": "7310 W Hausman Rd, San Antonio, TX 78249, USA", "Zip": "78249", "Price_Level(Google)": 0.0, "Rating(Google)": 4.8}}
,{"type": "Feature", "geometry": {"type": "Point", "coordinates": [-98.55, 29.388]}, "properties": {"Name": "REGIOS Tacos A Vapor", "Address": "2000 Cupples Rd, San Antonio, TX 78226, USA", "Zip": "78226", "Price_Level(Google)": 0.0, "Rating(Google)": 4.7}}
,{"type": "Feature", "geometry": {"type": "Point", "coordinates": [-98.55, 29.394]}, "properties": {"Name": "Maria's Cafe", "Address": "1401 Cupples Rd, San Antonio, TX 78226, USA", "Zip": "78226", "Price_Level(Google)": 0.0, "Rating(Google)": 4.3}}
,{"type": "Feature", "geometry": {"type": "Point", "coordinates": [-98.55, 29.387]}, "properties": {"Name": "Blanquita Mexican Restaurant", "Address": "2110 Cupples Rd, San Antonio, TX 78226, USA", "Zip": "78226", "Price_Level(Google)": 0.0, "Rating(Google)": 4.3}}
,{"type": "Feature", "geometry": {"type": "Point", "coordinates": [-98.652, 29.418]}, "properties": {"Name": "Taco Cabana", "Address": "8213 Marbach Rd, San Antonio, TX 78227, USA", "Zip": "78227", "Price_Level(Google)": 1.0, "Rating(Google)": 3.6}}
,{"type": "Feature", "geometry": {"type": "Point", "coordinates": [-98.629, 29.404]}, "properties": {"Name": "Taco Bell", "Address": "6807 W Military Dr, San Antonio, TX 78227, USA", "Zip": "78227", "Price_Level(Google)": 1.0, "Rating(Google)": 3.8}}
,{"type": "Feature", "geometry": {"type": "Point", "coordinates": [-98.639, 29.46]}, "properties": {"Name": "Tacos Y Burritos Metro Basilica 2", "Address": "7627 Culebra Rd #105, San Antonio, TX 78251, USA", "Zip": "78251", "Price_Level(Google)": 0.0, "Rating(Google)": 4.6}}
,{"type": "Feature", "geometry": {"type": "Point", "coordinates": [-98.646, 29.419]}, "properties": {"Name": "Apetitos Mexican Restaurant", "Address": "1615 Meadow Way, San Antonio, TX 78227, United States", "Zip": "78227", "Price_Level(Google)": 2.0, "Rating(Google)": 4.2}}
,{"type": "Feature", "geometry": {"type": "Point", "coordinates": [-98.605, 29.484]}, "properties": {"Name": "Taco Cabana", "Address": "6040 Bandera Rd, San Antonio, TX 78238, USA", "Zip": "78238", "Price_Level(Google)": 1.0, "Rating(Google)": 3.7}}
,{"type": "Feature", "geometry": {"type": "Point", "coordinates": [-98.622, 29.34]}, "properties": {"Name": "Taco Bell", "Address": "6322 Old Pearsall Rd, San Antonio, TX 78242, USA", "Zip": "78242", "Price_Level(Google)": 0.0, "Rating(Google)": 3.8}}
,{"type": "Feature", "geometry": {"type": "Point", "coordinates": [-98.66, 29.44]}, "properties": {"Name": "Grand Tequila Restaurant & Cantina", "Address": "8723 TX-151, San Antonio, TX 78245, USA", "Zip": "78245", "Price_Level(Google)": 0.0, "Rating(Google)": 4.1}}
,{"type": "Feature", "geometry": {"type": "Point", "coordinates": [-98.577, 29.45]}, "properties": {"Name": "Tacos Betos", "Address": "3707 Culebra Rd, San Antonio, TX 78228, USA", "Zip": "78228", "Price_Level(Google)": 0.0, "Rating(Google)": 4.5}}
,{"type": "Feature", "geometry": {"type": "Point", "coordinates": [-98.554, 29.456]}, "properties": {"Name": "Lisa's Mexican Restaurant", "Address": "815 Bandera Rd, San Antonio, TX 78228, USA", "Zip": "78228", "Price_Level(Google)": 1.0, "Rating(Google)": 3.9}}
,{"type": "Feature", "geometry": {"type": "Point", "coordinates": [-98.549, 29.453]}, "properties": {"Name": "Rita's Fiesta Cafe LLC", "Address": "612 Bandera Rd, San Antonio, TX 78228, USA", "Zip": "78228", "Price_Level(Google)": 0.0, "Rating(Google)": 4.2}}
,{"type": "Feature", "geometry": {"type": "Point", "coordinates": [-98.588, 29.509]}, "properties": {"Name": "Los Tacos Hermanos (Papa Nono's)", "Address": "5282 Medical Dr Ste 115, San Antonio, TX 78229, USA", "Zip": "78229", "Price_Level(Google)": 0.0, "Rating(Google)": 4.7}}
,{"type": "Feature", "geometry": {"type": "Point", "coordinates": [-98.563, 29.518]}, "properties": {"Name": "Taqueria Datapoint", "Address": "4063 Medical Dr, San Antonio, TX 78229, USA", "Zip": "78229", "Price_Level(Google)": 2.0, "Rating(Google)": 4.4}}
,{"type": "Feature", "geometry": {"type": "Point", "coordinates": [-98.568, 29.512]}, "properties": {"Name": "Original Blanco Cafe", "Address": "7934 Fredericksburg Rd, San Antonio, TX 78229, USA", "Zip": "78229", "Price_Level(Google)": 2.0, "Rating(Google)": 4.2}}
,{"type": "Feature", "geometry": {"type": "Point", "coordinates": [-98.623, 29.589]}, "properties": {"Name": "Taco Cabana", "Address": "15606 Chase Hill Blvd, San Antonio, TX 78256, USA", "Zip": "78256", "Price_Level(Google)": 1.0, "Rating(Google)": 3.7}}
,{"type": "Feature", "geometry": {"type": "Point", "coordinates": [-98.59, 29.561]}, "properties": {"Name": "Taco Cabana", "Address": "12731 I-10, San Antonio, TX 78230, USA", "Zip": "78230", "Price_Level(Google)": 1.0, "Rating(Google)": 3.7}}
,{"type": "Feature", "geometry": {"type": "Point", "coordinates": [-98.564, 29.532]}, "properties": {"Name": "Mama Margies Mexican Restaurant/IH-10", "Address": "9950 Interstate 10 W, San Antonio, TX 78230, United States", "Zip": "78230", "Price_Level(Google)": 1.0, "Rating(Google)": 4.1}}
,{"type": "Feature", "geometry": {"type": "Point", "coordinates": [-98.51, 29.608]}, "properties": {"Name": "Taco Cabana", "Address": "1130 North Loop 1604 W Ste105, San Antonio, TX 78248, USA", "Zip": "78248", "Price_Level(Google)": 1.0, "Rating(Google)": 4.0}}
,{"type": "Feature", "geometry": {"type": "Point", "coordinates": [-98.451, 29.588]}, "properties": {"Name": "Camila's Mexican Restaurant", "Address": "16075 Henderson Pass, San Antonio, TX 78232, USA", "Zip": "78232", "Price_Level(Google)": 0.0, "Rating(Google)": 4.3}}
,{"type": "Feature", "geometry": {"type": "Point", "coordinates": [-98.457, 29.635]}, "properties": {"Name": "Taco Cabana", "Address": "20720 Us Hwy N 281, San Antonio, TX 78258, United States", "Zip": "78258", "Price_Level(Google)": 1.0, "Rating(Google)": 3.6}}
,{"type": "Feature", "geometry": {"type": "Point", "coordinates": [-98.469, 29.61]}, "properties": {"Name": "Las Palapas", "Address": "1615 Access Route 1604, San Antonio, TX 78232, USA", "Zip": "78232", "Price_Level(Google)": 2.0, "Rating(Google)": 4.1}}
,{"type": "Feature", "geometry": {"type": "Point", "coordinates": [-98.513, 29.622]}, "properties": {"Name": "El Taco Grill", "Address": "19211 Huebner Rd., Suite #2, San Antonio, TX 78258, United States", "Zip": "78258", "Price_Level(Google)": 0.0, "Rating(Google)": 4.6}}
,{"type": "Feature", "geometry": {"type": "Point", "coordinates": [-98.355, 29.594]}, "properties": {"Name": "Taco Cabana", "Address": "6826 N Loop 1604 E, Bldg 2, San Antonio, TX 78247, United States", "Zip": "78247", "Price_Level(Google)": 1.0, "Rating(Google)": 3.5}}
,{"type": "Feature", "geometry": {"type": "Point", "coordinates": [-98.331, 29.561]}, "properties": {"Name": "Taco Bell", "Address": "8040 Pat Booker Rd, Live Oak, TX 78233, USA", "Zip": "78233", "Price_Level(Google)": 1.0, "Rating(Google)": 3.6}}
,{"type": "Feature", "geometry": {"type": "Point", "coordinates": [-98.33, 29.56]}, "properties": {"Name": "Flaco's Burgers & Tacos", "Address": "8141 Pat Booker Rd, Live Oak, TX 78233, USA", "Zip": "78233", "Price_Level(Google)": 1.0, "Rating(Google)": 4.2}}
,{"type": "Feature", "geometry": {"type": "Point", "coordinates": [-98.435, 29.463]}, "properties": {"Name": "Taco Bell", "Address": "1387 Williams Rd, San Antonio, TX 78234, USA", "Zip": "78234", "Price_Level(Google)": 1.0, "Rating(Google)": 1.0}}
,{"type": "Feature", "geometry": {"type": "Point", "coordinates": [-98.431, 29.484]}, "properties": {"Name": "Charro Mexican Grill", "Address": "2351 Harry Wurzbach Rd, San Antonio, TX 78209, USA", "Zip": "78209", "Price_Level(Google)": 0.0, "Rating(Google)": 4.6}}
,{"type": "Feature", "geometry": {"type": "Point", "coordinates": [-98.435, 29.463]}, "properties": {"Name": "Mini-mall Food Court", "Address": "Williams Rd, San Antonio, TX 78234, USA", "Zip": "78234", "Price_Level(Google)": 0.0, "Rating(Google)": 3.3}}
,{"type": "Feature", "geometry": {"type": "Point", "coordinates": [-98.47, 29.456]}, "properties": {"Name": "Tomatillos Cafe Y Cantina", "Address": "3210 Broadway St, San Antonio, TX 78209, USA", "Zip": "78209", "Price_Level(Google)": 2.0, "Rating(Google)": 3.9}}
,{"type": "Feature", "geometry": {"type": "Point", "coordinates": [-98.466, 29.462]}, "properties": {"Name": "Chipotle Mexican Grill", "Address": "3928 Broadway St, San Antonio, TX 78209, USA", "Zip": "78209", "Price_Level(Google)": 1.0, "Rating(Google)": 4.2}}
,{"type": "Feature", "geometry": {"type": "Point", "coordinates": [-98.629, 29.407]}, "properties": {"Name": "Garibaldi Mexican Restaurant", "Address": "6938 W Military Dr, San Antonio, TX 78227, USA", "Zip": "78227", "Price_Level(Google)": 0.0, "Rating(Google)": 3.7}}
,{"type": "Feature", "geometry": {"type": "Point", "coordinates": [-98.63, 29.405]}, "properties": {"Name": "Taqueria Vallarta", "Address": "6881 W Military Dr, San Antonio, TX 78227, USA", "Zip": "78227", "Price_Level(Google)": 0.0, "Rating(Google)": 3.9}}
,{"type": "Feature", "geometry": {"type": "Point", "coordinates": [-98.602, 29.37]}, "properties": {"Name": "The Mexico Taqueria", "Address": "5132 W Military Dr, San Antonio, TX 78242, USA", "Zip": "78242", "Price_Level(Google)": 0.0, "Rating(Google)": 3.9}}
,{"type": "Feature", "geometry": {"type": "Point", "coordinates": [-98.623, 29.341]}, "properties": {"Name": "Taqueria Mexico, Inc. Old Pearsall Rd.", "Address": "6333 Old Pearsall Rd, San Antonio, TX 78242, USA", "Zip": "78242", "Price_Level(Google)": 0.0, "Rating(Google)": 3.9}}
,{"type": "Feature", "geometry": {"type": "Point", "coordinates": [-98.551, 29.356]}, "properties": {"Name": "Taqueria Mexico Inc", "Address": "7167 Somerset Rd, San Antonio, TX 78211, USA", "Zip": "78211", "Price_Level(Google)": 1.0, "Rating(Google)": 4.3}}
,{"type": "Feature", "geometry": {"type": "Point", "coordinates": [-98.63, 29.403]}, "properties": {"Name": "La Michelada Grill", "Address": "2623 Rockgate Dr, San Antonio, TX 78227, USA", "Zip": "78227", "Price_Level(Google)": 0.0, "Rating(Google)": 4.3}}
,{"type": "Feature", "geometry": {"type": "Point", "coordinates": [-98.626, 29.382]}, "properties": {"Name": "Taco John's", "Address": "1451 Stewart Road 7025, Lackland AFB, TX 78236, United States", "Zip": "78236", "Price_Level(Google)": 1.0, "Rating(Google)": 3.6}}
,{"type": "Feature", "geometry": {"type": "Point", "coordinates": [-98.624, 29.467]}, "properties": {"Name": "Tink-A-Tako", "Address": "3299 Wurzbach Rd, San Antonio, TX 78238, USA", "Zip": "78238", "Price_Level(Google)": 0.0, "Rating(Google)": 3.8}}
,{"type": "Feature", "geometry": {"type": "Point", "coordinates": [-98.623, 29.498]}, "properties": {"Name": "Tia's Taco Hut", "Address": "6820 Huebner Rd, Leon Valley, TX 78238, USA", "Zip": "78238", "Price_Level(Google)": 0.0, "Rating(Google)": 4.2}}
,{"type": "Feature", "geometry": {"type": "Point", "coordinates": [-98.621, 29.496]}, "properties": {"Name": "Chacho's", "Address": "6757 Poss Rd, San Antonio, TX 78238, USA", "Zip": "78238", "Price_Level(Google)": 1.0, "Rating(Google)": 3.8}}
,{"type": "Feature", "geometry": {"type": "Point", "coordinates": [-98.622, 29.461]}, "properties": {"Name": "Vallarta Grill", "Address": "6810 NW Loop 410, San Antonio, TX 78238, USA", "Zip": "78238", "Price_Level(Google)": 0.0, "Rating(Google)": 4.2}}
,{"type": "Feature", "geometry": {"type": "Point", "coordinates": [-98.63, 29.483]}, "properties": {"Name": "Elizabeth's Mexican Restaurant", "Address": "5251 Timberhill # 206, San Antonio, TX 78238, USA", "Zip": "78238", "Price_Level(Google)": 0.0, "Rating(Google)": 4.4}}
,{"type": "Feature", "geometry": {"type": "Point", "coordinates": [-98.628, 29.508]}, "properties": {"Name": "3 Amigos Mexican Restaurant", "Address": "7530 Bandera Rd #135, San Antonio, TX 78238, USA", "Zip": "78238", "Price_Level(Google)": 0.0, "Rating(Google)": 4.0}}
,{"type": "Feature", "geometry": {"type": "Point", "coordinates": [-98.63, 29.507]}, "properties": {"Name": "El Taco Grill", "Address": "7531 Bandera Rd #101, San Antonio, TX 78238, USA", "Zip": "78238", "Price_Level(Google)": 0.0, "Rating(Google)": 5.0}}
,{"type": "Feature", "geometry": {"type": "Point", "coordinates": [-98.6, 29.523]}, "properties": {"Name": "Tia's Taco Hut", "Address": "5730 Babcock Rd, San Antonio, TX 78240, USA", "Zip": "78240", "Price_Level(Google)": 0.0, "Rating(Google)": 4.1}}
,{"type": "Feature", "geometry": {"type": "Point", "coordinates": [-98.635, 29.516]}, "properties": {"Name": "Tacos Ricos", "Address": "8025 Bandera Rd, San Antonio, TX 78250, USA", "Zip": "78250", "Price_Level(Google)": 0.0, "Rating(Google)": 4.1}}
,{"type": "Feature", "geometry": {"type": "Point", "coordinates": [-98.601, 29.526]}, "properties": {"Name": "Tink-A-Tako", "Address": "5895 Babcock Rd, San Antonio, TX 78240, USA", "Zip": "78240", "Price_Level(Google)": 0.0, "Rating(Google)": 3.3}}
,{"type": "Feature", "geometry": {"type": "Point", "coordinates": [-98.614, 29.556]}, "properties": {"Name": "Andrea's Barbacoa & Tacos", "Address": "6565 Babcock Rd, San Antonio, TX 78249, USA", "Zip": "78249", "Price_Level(Google)": 0.0, "Rating(Google)": 4.8}}
,{"type": "Feature", "geometry": {"type": "Point", "coordinates": [-98.705, 29.49]}, "properties": {"Name": "Taco Cabana", "Address": "5738 W Loop 1604 N, San Antonio, TX 78251, USA", "Zip": "78251", "Price_Level(Google)": 1.0, "Rating(Google)": 3.2}}
,{"type": "Feature", "geometry": {"type": "Point", "coordinates": [-98.796, 29.426]}, "properties": {"Name": "El Mucho Taco Plus", "Address": "15118 Potranco Rd #14, San Antonio, TX 78245, USA", "Zip": "78245", "Price_Level(Google)": 0.0, "Rating(Google)": 3.7}}
,{"type": "Feature", "geometry": {"type": "Point", "coordinates": [-98.733, 29.43]}, "properties": {"Name": "Sandra's Mexican Food", "Address": "12060 Potranco Rd, San Antonio, TX 78253, USA", "Zip": "78253", "Price_Level(Google)": 0.0, "Rating(Google)": 3.7}}
,{"type": "Feature", "geometry": {"type": "Point", "coordinates": [-98.716, 29.434]}, "properties": {"Name": "Taco Bell", "Address": "11238 Potranco Rd, San Antonio, TX 78253, USA", "Zip": "78253", "Price_Level(Google)": 1.0, "Rating(Google)": 3.6}}
,{"type": "Feature", "geometry": {"type": "Point", "coordinates": [-98.71, 29.438]}, "properties": {"Name": "Taco Cabana", "Address": "602 W Loop 1604 N, San Antonio, TX 78251, USA", "Zip": "78251", "Price_Level(Google)": 1.0, "Rating(Google)": 3.6}}
,{"type": "Feature", "geometry": {"type": "Point", "coordinates": [-98.703, 29.406]}, "properties": {"Name": "Taco Loco", "Address": "11797 Marbach Rd, San Antonio, TX 78245, USA", "Zip": "78245", "Price_Level(Google)": 0.0, "Rating(Google)": 4.9}}
,{"type": "Feature", "geometry": {"type": "Point", "coordinates": [-98.662, 29.419]}, "properties": {"Name": "Speedy's Tacos To Go", "Address": "9055 Marbach Rd #103, San Antonio, TX 78245, USA", "Zip": "78245", "Price_Level(Google)": 0.0, "Rating(Google)": 2.5}}
,{"type": "Feature", "geometry": {"type": "Point", "coordinates": [-98.659, 29.444]}, "properties": {"Name": "Tacos El Rodeo De Jalisco", "Address": "8802 Potranco Rd Suite 101, San Antonio, TX 78251, USA", "Zip": "78251", "Price_Level(Google)": 0.0, "Rating(Google)": 4.2}}
,{"type": "Feature", "geometry": {"type": "Point", "coordinates": [-98.412, 29.543]}, "properties": {"Name": "Taco Bell", "Address": "11461 Perrin Beitel Rd, San Antonio, TX 78217, USA", "Zip": "78217", "Price_Level(Google)": 1.0, "Rating(Google)": 3.9}}
,{"type": "Feature", "geometry": {"type": "Point", "coordinates": [-98.461, 29.548]}, "properties": {"Name": "Brendas Mexican restaurant", "Address": "11888 Starcrest Dr, San Antonio, TX 78247, USA", "Zip": "78247", "Price_Level(Google)": 0.0, "Rating(Google)": 4.5}}
,{"type": "Feature", "geometry": {"type": "Point", "coordinates": [-98.529, 29.592]}, "properties": {"Name": "Tacos El Gallito Food Truck", "Address": "16535 Huebner Rd, San Antonio, TX 78248, USA", "Zip": "78248", "Price_Level(Google)": 0.0, "Rating(Google)": 4.0}}
,{"type": "Feature", "geometry": {"type": "Point", "coordinates": [-98.633, 29.588]}, "properties": {"Name": "Taco Bell", "Address": "7323 North Loop 1604 W, San Antonio, TX 78249, USA", "Zip": "78249", "Price_Level(Google)": 1.0, "Rating(Google)": 3.9}}
,{"type": "Feature", "geometry": {"type": "Point", "coordinates": [-98.632, 29.577]}, "properties": {"Name": "Fuzzy's Taco Shop", "Address": "7280 UTSA Boulevard Ste 101, San Antonio, TX 78249, USA", "Zip": "78249", "Price_Level(Google)": 0.0, "Rating(Google)": 4.1}}
,{"type": "Feature", "geometry": {"type": "Point", "coordinates": [-98.593, 29.567]}, "properties": {"Name": "Matamoros Restaurante Y Cantina", "Address": "12844 I-10, San Antonio, TX 78249, USA", "Zip": "78249", "Price_Level(Google)": 2.0, "Rating(Google)": 4.0}}
,{"type": "Feature", "geometry": {"type": "Point", "coordinates": [-98.601, 29.564]}, "properties": {"Name": "Checo's Mexican & American Grill", "Address": "5999 De Zavala Rd #136, San Antonio, TX 78249, USA", "Zip": "78249", "Price_Level(Google)": 0.0, "Rating(Google)": 4.2}}
,{"type": "Feature", "geometry": {"type": "Point", "coordinates": [-98.662, 29.519]}, "properties": {"Name": "Jalisco's Breakfast Tacos and Mexican Food", "Address": "9080 Guilbeau Rd, San Antonio, TX 78250, USA", "Zip": "78250", "Price_Level(Google)": 0.0, "Rating(Google)": 4.4}}
,{"type": "Feature", "geometry": {"type": "Point", "coordinates": [-98.666, 29.484]}, "properties": {"Name": "Taco Bell", "Address": "9160 Grissom Rd, San Antonio, TX 78251, USA", "Zip": "78251", "Price_Level(Google)": 1.0, "Rating(Google)": 3.2}}
,{"type": "Feature", "geometry": {"type": "Point", "coordinates": [-98.702, 29.498]}, "properties": {"Name": "Taco Palenque Culebra", "Address": "6614 W Loop 1604 N, San Antonio, TX 78254, USA", "Zip": "78254", "Price_Level(Google)": 0.0, "Rating(Google)": 4.2}}
,{"type": "Feature", "geometry": {"type": "Point", "coordinates": [-98.664, 29.518]}, "properties": {"Name": "Tink-A-Tako (Tezel Rd.)", "Address": "8181 Tezel Rd, San Antonio, TX 78250, USA", "Zip": "78250", "Price_Level(Google)": 2.0, "Rating(Google)": 4.0}}
,{"type": "Feature", "geometry": {"type": "Point", "coordinates": [-98.712, 29.498]}, "properties": {"Name": "Taco Bell", "Address": "11215 Culebra Rd, San Antonio, TX 78254, USA", "Zip": "78254", "Price_Level(Google)": 1.0, "Rating(Google)": 3.6}}
,{"type": "Feature", "geometry": {"type": "Point", "coordinates": [-98.708, 29.496]}, "properties": {"Name": "Mama Margies Mexican Restaurant-Culebra", "Address": "10927 W Fm 471, San Antonio, TX 78253, USA", "Zip": "78253", "Price_Level(Google)": 0.0, "Rating(Google)": 4.1}}
,{"type": "Feature", "geometry": {"type": "Point", "coordinates": [-98.662, 29.505]}, "properties": {"Name": "Chaparritas Mexican Restaurant & Catering", "Address": "7350 Tezel Rd, San Antonio, TX 78250, USA", "Zip": "78250", "Price_Level(Google)": 0.0, "Rating(Google)": 4.5}}
,{"type": "Feature", "geometry": {"type": "Point", "coordinates": [-98.64, 29.459]}, "properties": {"Name": "Los Ajos Mexican Grill", "Address": "7616 Culebra Rd #109, San Antonio, TX 78251, USA", "Zip": "78251", "Price_Level(Google)": 0.0, "Rating(Google)": 4.4}}
,{"type": "Feature", "geometry": {"type": "Point", "coordinates": [-98.672, 29.304]}, "properties": {"Name": "Sandra's Mexican Food", "Address": "12030 TX-1604 Loop, San Antonio, TX 78252, USA", "Zip": "78252", "Price_Level(Google)": 0.0, "Rating(Google)": 3.6}}
,{"type": "Feature", "geometry": {"type": "Point", "coordinates": [-98.669, 29.297]}, "properties": {"Name": "AGUASCALIENTES TAQUERIA", "Address": "12790 W Loop 1604 S, San Antonio, TX 78252, USA", "Zip": "78252", "Price_Level(Google)": 0.0, "Rating(Google)": 4.6}}
,{"type": "Feature", "geometry": {"type": "Point", "coordinates": [-98.672, 29.304]}, "properties": {"Name": "Tink-A-Tako", "Address": "12030 TX-1604 Loop, San Antonio, TX 78252, USA", "Zip": "78252", "Price_Level(Google)": 0.0, "Rating(Google)": 0.0}}
,{"type": "Feature", "geometry": {"type": "Point", "coordinates": [-98.739, 29.365]}, "properties": {"Name": "Maribel's Kitchen", "Address": "6719 Wt Montgomery, San Antonio, TX 78252, USA", "Zip": "78252", "Price_Level(Google)": 0.0, "Rating(Google)": 3.4}}
,{"type": "Feature", "geometry": {"type": "Point", "coordinates": [-98.666, 29.28]}, "properties": {"Name": "Tacos EL Trailero 137", "Address": "14343-, 14429 Interstate 35 Access Rd, Von Ormy, TX 78073, United States", "Zip": "78073", "Price_Level(Google)": 0.0, "Rating(Google)": 4.0}}
,{"type": "Feature", "geometry": {"type": "Point", "coordinates": [-98.789, 29.229]}, "properties": {"Name": "Taco Bell", "Address": "19565 IH 35 S, Lytle, TX 78052, United States", "Zip": "78052", "Price_Level(Google)": 1.0, "Rating(Google)": 3.2}}
,{"type": "Feature", "geometry": {"type": "Point", "coordinates": [-98.717, 29.524]}, "properties": {"Name": "Tacos El Forastero", "Address": "8510 Steubing Rd, San Antonio, TX 78254, USA", "Zip": "78254", "Price_Level(Google)": 0.0, "Rating(Google)": 4.6}}
,{"type": "Feature", "geometry": {"type": "Point", "coordinates": [-98.613, 29.63]}, "properties": {"Name": "Taco Cabana", "Address": "25103 IH-10 W, San Antonio, TX 78257, USA", "Zip": "78257", "Price_Level(Google)": 1.0, "Rating(Google)": 3.8}}
,{"type": "Feature", "geometry": {"type": "Point", "coordinates": [-98.611, 29.592]}, "properties": {"Name": "Palenque Grill La Cantera", "Address": "15900 La Cantera Pkwy, San Antonio, TX 78256, USA", "Zip": "78256", "Price_Level(Google)": 2.0, "Rating(Google)": 4.3}}
,{"type": "Feature", "geometry": {"type": "Point", "coordinates": [-98.631, 29.663]}, "properties": {"Name": "Las Palapas", "Address": "23725 Interstate 10 Frontage Rd, San Antonio, TX 78257, USA", "Zip": "78257", "Price_Level(Google)": 2.0, "Rating(Google)": 3.8}}
,{"type": "Feature", "geometry": {"type": "Point", "coordinates": [-98.6, 29.61]}, "properties": {"Name": "Tiagos Cabo Grille", "Address": "17711 Frontage Rd, San Antonio, TX 78257, USA", "Zip": "78257", "Price_Level(Google)": 2.0, "Rating(Google)": 4.2}}
,{"type": "Feature", "geometry": {"type": "Point", "coordinates": [-98.6, 29.603]}, "properties": {"Name": "54th Street Restaurant & Drafthouse", "Address": "17122 West Interstate 10, San Antonio, TX 78257, United States", "Zip": "78257", "Price_Level(Google)": 0.0, "Rating(Google)": 4.2}}
,{"type": "Feature", "geometry": {"type": "Point", "coordinates": [-98.493, 29.612]}, "properties": {"Name": "Marioli", "Address": "18730 Tuscany Stone, San Antonio, TX 78258, USA", "Zip": "78258", "Price_Level(Google)": 2.0, "Rating(Google)": 4.4}}
,{"type": "Feature", "geometry": {"type": "Point", "coordinates": [-98.458, 29.63]}, "properties": {"Name": "Tink-A-Tako #13 / Sandra's Mexican Food", "Address": "1662 Encino Rio, San Antonio, TX 78259, USA", "Zip": "78259", "Price_Level(Google)": 0.0, "Rating(Google)": 2.7}}
,{"type": "Feature", "geometry": {"type": "Point", "coordinates": [-98.448, 29.614]}, "properties": {"Name": "La Hacienda de Los Barrios", "Address": "18747 Redland Rd, San Antonio, TX 78259, USA", "Zip": "78259", "Price_Level(Google)": 2.0, "Rating(Google)": 4.0}}
,{"type": "Feature", "geometry": {"type": "Point", "coordinates": [-98.522, 29.675]}, "properties": {"Name": "Aguas Calientes Taqueria", "Address": "25020 Blanco Rd # 200, San Antonio, TX 78260, USA", "Zip": "78260", "Price_Level(Google)": 0.0, "Rating(Google)": 4.4}}
,{"type": "Feature", "geometry": {"type": "Point", "coordinates": [-98.425, 29.649]}, "properties": {"Name": "Vida Mia Mexican Cuisine", "Address": "22250 Bulverde Rd #114, San Antonio, TX 78261, USA", "Zip": "78261", "Price_Level(Google)": 2.0, "Rating(Google)": 4.4}}
,{"type": "Feature", "geometry": {"type": "Point", "coordinates": [-98.496, 29.625]}, "properties": {"Name": "Vida Mia Mexican Cuisine - Stone Oak @ Huebner", "Address": "19141 Stone Oak Pkwy #803, San Antonio, TX 78258, USA", "Zip": "78258", "Price_Level(Google)": 2.0, "Rating(Google)": 4.3}}
,{"type": "Feature", "geometry": {"type": "Point", "coordinates": [-98.401, 29.667]}, "properties": {"Name": "Cibolo Moon", "Address": "23808 Resort Pkwy, San Antonio, TX 78261, USA", "Zip": "78261", "Price_Level(Google)": 0.0, "Rating(Google)": 4.1}}
,{"type": "Feature", "geometry": {"type": "Point", "coordinates": [-98.424, 29.647]}, "properties": {"Name": "Los Arcos Mexican Grill Bulverde Location", "Address": "22106 Bulverde Rd #101, San Antonio, TX 78259, USA", "Zip": "78259", "Price_Level(Google)": 0.0, "Rating(Google)": 4.5}}
,{"type": "Feature", "geometry": {"type": "Point", "coordinates": [-98.454, 29.643]}, "properties": {"Name": "Lupe Tortilla", "Address": "21103 US-281, San Antonio, TX 78258, USA", "Zip": "78258", "Price_Level(Google)": 2.0, "Rating(Google)": 4.3}}
,{"type": "Feature", "geometry": {"type": "Point", "coordinates": [-98.501, 29.607]}, "properties": {"Name": "Costa Pacifica", "Address": "434 North Loop 1604 W #2101, San Antonio, TX 78232, USA", "Zip": "78232", "Price_Level(Google)": 0.0, "Rating(Google)": 4.2}}
,{"type": "Feature", "geometry": {"type": "Point", "coordinates": [-98.479, 29.571]}, "properties": {"Name": "Alamo Cafe", "Address": "14250 San Pedro Ave, San Antonio, TX 78232, USA", "Zip": "78232", "Price_Level(Google)": 2.0, "Rating(Google)": 4.2}}
,{"type": "Feature", "geometry": {"type": "Point", "coordinates": [-98.414, 29.217]}, "properties": {"Name": "Frank's Tacos", "Address": "20275 Interstate Hwy 37, San Antonio, TX 78264, USA", "Zip": "78264", "Price_Level(Google)": 0.0, "Rating(Google)": 4.7}}
,{"type": "Feature", "geometry": {"type": "Point", "coordinates": [-98.483, 29.166]}, "properties": {"Name": "A & G Kocina", "Address": "24185 US-281, San Antonio, TX 78264, USA", "Zip": "78264", "Price_Level(Google)": 0.0, "Rating(Google)": 3.9}}
,{"type": "Feature", "geometry": {"type": "Point", "coordinates": [-98.492, 29.217]}, "properties": {"Name": "Alondras De Jalisco", "Address": "505 S Loop 1604 E, San Antonio, TX 78264, USA", "Zip": "78264", "Price_Level(Google)": 0.0, "Rating(Google)": 3.4}}
,{"type": "Feature", "geometry": {"type": "Point", "coordinates": [-98.482, 29.176]}, "properties": {"Name": "La Cabana Mexican Restaurant", "Address": "23425 US-281, San Antonio, TX 78264, USA", "Zip": "78264", "Price_Level(Google)": 0.0, "Rating(Google)": 3.9}}
,{"type": "Feature", "geometry": {"type": "Point", "coordinates": [-98.316, 29.616]}, "properties": {"Name": "Grumpy's Mexican Cafe", "Address": "1881 FM2252, San Antonio, TX 78266, USA", "Zip": "78266", "Price_Level(Google)": 2.0, "Rating(Google)": 4.4}}
,{"type": "Feature", "geometry": {"type": "Point", "coordinates": [-98.37, 29.547]}, "properties": {"Name": "Taco Bell", "Address": "11711 O'Connor Rd, San Antonio, TX 78233, USA", "Zip": "78233", "Price_Level(Google)": 0.0, "Rating(Google)": 4.4}}
,{"type": "Feature", "geometry": {"type": "Point", "coordinates": [-98.318, 29.499]}, "properties": {"Name": "Taco Bell", "Address": "8630 FM 78, Converse, TX 78109, United States", "Zip": "78109", "Price_Level(Google)": 1.0, "Rating(Google)": 3.4}}
,{"type": "Feature", "geometry": {"type": "Point", "coordinates": [-98.304, 29.552]}, "properties": {"Name": "Taco Cabana", "Address": "1533 Pat Booker Rd, Universal City, TX 78148, USA", "Zip": "78148", "Price_Level(Google)": 1.0, "Rating(Google)": 3.4}}
,{"type": "Feature", "geometry": {"type": "Point", "coordinates": [-98.28, 29.599]}, "properties": {"Name": "Taco Bell", "Address": "17397 N Interstate 35 Frontage Rd, Schertz, TX 78154, USA", "Zip": "78154", "Price_Level(Google)": 1.0, "Rating(Google)": 3.0}}
,{"type": "Feature", "geometry": {"type": "Point", "coordinates": [-98.566, 29.534]}, "properties": {"Name": "Alamo Cafe", "Address": "10060 W IH 10, San Antonio, TX 78230, USA", "Zip": "78230", "Price_Level(Google)": 2.0, "Rating(Google)": 4.1}}
,{"type": "Feature", "geometry": {"type": "Point", "coordinates": [-98.569, 29.539]}, "properties": {"Name": "Pappasito's Cantina", "Address": "10501 Frontage Rd, San Antonio, TX 78230, USA", "Zip": "78230", "Price_Level(Google)": 2.0, "Rating(Google)": 4.2}}
,{"type": "Feature", "geometry": {"type": "Point", "coordinates": [-98.579, 29.552]}, "properties": {"Name": "Anthony's Tex Mex To Go", "Address": "4942 Woodstone Dr, San Antonio, TX 78230, USA", "Zip": "78230", "Price_Level(Google)": 0.0, "Rating(Google)": 4.5}}
]}