{"type": "FeatureCollection", "features": [
{"type": "Feature", "geometry": {"type": "Point", "coordinates": [-97.745, 30.215]}, "properties": {"Name": "Asia", "Address": "1931 E Ben White Blvd #300, Austin, TX 78741, USA", "Zip": "78741", "Price_Level(Google)": 2.0, "Rating(Google)": 3.8}}
,{"type": "Feature", "geometry": {"type": "Point", "coordinates": [-97.787, 30.272]}, "properties": {"Name": "Chinatown", "Address": "2712 Bee Caves Rd, Austin, TX 78746, USA", "Zip": "78746", "Price_Level(Google)": 2.0, "Rating(Google)": 4.1}}
,{"type": "Feature", "geometry": {"type": "Point", "coordinates": [-97.752, 30.238]}, "properties": {"Name": "New Mandarin", "Address": "212 E Oltorf St, Austin, TX 78704, USA", "Zip": "78704", "Price_Level(Google)": 2.0, "Rating(Google)": 3.5}}
,{"type": "Feature", "geometry": {"type": "Point", "coordinates": [-97.715, 30.331]}, "properties": {"Name": "China Palace", "Address": "3601, 6605 Airport Blvd, Austin, TX 78752, United States", "Zip": "78752", "Price_Level(Google)": 2.0, "Rating(Google)": 3.9}}
,{"type": "Feature", "geometry": {"type": "Point", "coordinates": [-97.771, 30.226]}, "properties": {"Name": "Bamboo Garden Chinese Restaurant", "Address": "625 W Ben White Blvd, Austin, TX 78704, USA", "Zip": "78704", "Price_Level(Google)": 2.0, "Rating(Google)": 4.0}}
,{"type": "Feature", "geometry": {"type": "Point", "coordinates": [-97.688, 30.378]}, "properties": {"Name": "New Fortune Chinese Seafood Restaurant", "Address": "10901 N Lamar Blvd, Austin, TX 78753, USA", "Zip": "78753", "Price_Level(Google)": 2.0, "Rating(Google)": 4.3}}
,{"type": "Feature", "geometry": {"type": "Point", "coordinates": [-97.748, 30.4]}, "properties": {"Name": "Twin Lion", "Address": "4815 W Braker Ln, Austin, TX 78759, USA", "Zip": "78759", "Price_Level(Google)": 2.0, "Rating(Google)": 4.3}}
,{"type": "Feature", "geometry": {"type": "Point", "coordinates": [-97.781, 30.208]}, "properties": {"Name": "1st Wok", "Address": "603 W Stassney Ln, Austin, TX 78745, USA", "Zip": "78745", "Price_Level(Google)": 2.0, "Rating(Google)": 4.4}}
,{"type": "Feature", "geometry": {"type": "Point", "coordinates": [-97.744, 30.267]}, "properties": {"Name": "Chinatown", "Address": "107 W 5th St, Austin, TX 78701, USA", "Zip": "78701", "Price_Level(Google)": 2.0, "Rating(Google)": 3.9}}
,{"type": "Feature", "geometry": {"type": "Point", "coordinates": [-97.748, 30.357]}, "properties": {"Name": "Chinatown", "Address": "3407 Greystone Dr, Austin, TX 78731, USA", "Zip": "78731", "Price_Level(Google)": 2.0, "Rating(Google)": 4.0}}
,{"type": "Feature", "geometry": {"type": "Point", "coordinates": [-97.707, 30.329]}, "properties": {"Name": "Shanghai", "Address": "6718 Middle Fiskville Rd, Austin, TX 78752, USA", "Zip": "78752", "Price_Level(Google)": 0.0, "Rating(Google)": 3.9}}
,{"type": "Feature", "geometry": {"type": "Point", "coordinates": [-97.817, 30.208]}, "properties": {"Name": "China Hill", "Address": "2800 W William Cannon Dr, Austin, TX 78745, USA", "Zip": "78745", "Price_Level(Google)": 2.0, "Rating(Google)": 3.9}}
,{"type": "Feature", "geometry": {"type": "Point", "coordinates": [-97.774, 30.19]}, "properties": {"Name": "China Harbor", "Address": "801 E William Cannon Dr, Austin, TX 78745, USA", "Zip": "78745", "Price_Level(Google)": 2.0, "Rating(Google)": 3.3}}
,{"type": "Feature", "geometry": {"type": "Point", "coordinates": [-97.73, 30.27]}, "properties": {"Name": "Old Thousand", "Address": "1000 E 11th St, Austin, TX 78702, USA", "Zip": "78702", "Price_Level(Google)": 2.0, "Rating(Google)": 4.5}}
,{"type": "Feature", "geometry": {"type": "Point", "coordinates": [-97.803, 30.231]}, "properties": {"Name": "Sichuan River", "Address": "4534 West Gate Blvd, Austin, TX 78745, USA", "Zip": "78745", "Price_Level(Google)": 2.0, "Rating(Google)": 4.1}}
,{"type": "Feature", "geometry": {"type": "Point", "coordinates": [-97.785, 30.197]}, "properties": {"Name": "Taiwan Restaurant", "Address": "500 W William Cannon Dr #420, Austin, TX 78745, USA", "Zip": "78745", "Price_Level(Google)": 2.0, "Rating(Google)": 3.3}}
,{"type": "Feature", "geometry": {"type": "Point", "coordinates": [-97.794, 30.237]}, "properties": {"Name": "Hunan Lion", "Address": "4006 S Lamar Blvd, Austin, TX 78704, USA", "Zip": "78704", "Price_Level(Google)": 2.0, "Rating(Google)": 4.0}}
,{"type": "Feature", "geometry": {"type": "Point", "coordinates": [-97.806, 30.201]}, "properties": {"Name": "Hao Hao Restaurant", "Address": "1901 W William Cannon Dr #115, Austin, TX 78745, USA", "Zip": "78745", "Price_Level(Google)": 2.0, "Rating(Google)": 4.1}}
,{"type": "Feature", "geometry": {"type": "Point", "coordinates": [-97.748, 30.269]}, "properties": {"Name": "Wu Chow", "Address": "IBC Bank Plaza, 500 W 5th St #168, Austin, TX 78701, USA", "Zip": "78701", "Price_Level(Google)": 2.0, "Rating(Google)": 4.3}}
,{"type": "Feature", "geometry": {"type": "Point", "coordinates": [-97.795, 30.236]}, "properties": {"Name": "Pei Wei", "Address": "4200 S Lamar Blvd, Austin, TX 78704, USA", "Zip": "78704", "Price_Level(Google)": 1.0, "Rating(Google)": 3.6}}
,{"type": "Feature", "geometry": {"type": "Point", "coordinates": [-97.742, 30.264]}, "properties": {"Name": "P.F. Chang's", "Address": "201 San Jacinto Blvd, Austin, TX 78701, USA", "Zip": "78701", "Price_Level(Google)": 2.0, "Rating(Google)": 4.0}}
,{"type": "Feature", "geometry": {"type": "Point", "coordinates": [-97.772, 30.433]}, "properties": {"Name": "Dynasty Chinese Restaurant", "Address": "8650 Spicewood Springs Rd #109, Austin, TX 78759, USA", "Zip": "78759", "Price_Level(Google)": 2.0, "Rating(Google)": 4.0}}
,{"type": "Feature", "geometry": {"type": "Point", "coordinates": [-97.816, 30.208]}, "properties": {"Name": "Bamboo Bistro Westgate", "Address": "6818 West Gate Blvd, Austin, TX 78745, USA", "Zip": "78745", "Price_Level(Google)": 0.0, "Rating(Google)": 4.0}}
,{"type": "Feature", "geometry": {"type": "Point", "coordinates": [-97.791, 30.459]}, "properties": {"Name": "China Cafe", "Address": "13729 US-183 Suite 695, Austin, TX 78750, USA", "Zip": "78750", "Price_Level(Google)": 2.0, "Rating(Google)": 3.8}}
,{"type": "Feature", "geometry": {"type": "Point", "coordinates": [-97.792, 30.161]}, "properties": {"Name": "Mama Fu's Asian House", "Address": "9600 S I-35 Suite C-100, Austin, TX 78748, USA", "Zip": "78748", "Price_Level(Google)": 2.0, "Rating(Google)": 3.4}}
,{"type": "Feature", "geometry": {"type": "Point", "coordinates": [-97.789, 30.196]}, "properties": {"Name": "Super Bowl Restaurant", "Address": "719 W William Cannon Dr, Austin, TX 78745, USA", "Zip": "78745", "Price_Level(Google)": 2.0, "Rating(Google)": 3.8}}
,{"type": "Feature", "geometry": {"type": "Point", "coordinates": [-97.75, 30.396]}, "properties": {"Name": "P.F. Chang's", "Address": "10114 Jollyville Rd, Austin, TX 78759, USA", "Zip": "78759", "Price_Level(Google)": 2.0, "Rating(Google)": 4.1}}
,{"type": "Feature", "geometry": {"type": "Point", "coordinates": [-97.799, 30.273]}, "properties": {"Name": "Lotus Hunan", "Address": "3201 Bee Caves Rd, Austin, TX 78746, USA", "Zip": "78746", "Price_Level(Google)": 2.0, "Rating(Google)": 4.1}}
,{"type": "Feature", "geometry": {"type": "Point", "coordinates": [-97.827, 30.175]}, "properties": {"Name": "China Dynasty", "Address": "2110 W Slaughter Ln, Austin, TX 78748, USA", "Zip": "78748", "Price_Level(Google)": 2.0, "Rating(Google)": 4.2}}
,{"type": "Feature", "geometry": {"type": "Point", "coordinates": [-97.72, 30.396]}, "properties": {"Name": "Bamboo Bistro", "Address": "11101 Burnet Rd, Austin, TX 78758, USA", "Zip": "78758", "Price_Level(Google)": 2.0, "Rating(Google)": 3.8}}
,{"type": "Feature", "geometry": {"type": "Point", "coordinates": [-97.742, 30.283]}, "properties": {"Name": "Look Noodles & More", "Address": "5607, 1914 Guadalupe St #A, Austin, TX 78705, United States", "Zip": "78705", "Price_Level(Google)": 0.0, "Rating(Google)": 3.9}}
,{"type": "Feature", "geometry": {"type": "Point", "coordinates": [-97.716, 30.361]}, "properties": {"Name": "Din Ho Chinese BBQ", "Address": "8557 Research Blvd #116, Austin, TX 78758, USA", "Zip": "78758", "Price_Level(Google)": 2.0, "Rating(Google)": 4.2}}
,{"type": "Feature", "geometry": {"type": "Point", "coordinates": [-97.794, 30.154]}, "properties": {"Name": "Chi Chinese Buffet", "Address": "9900 S Interstate 35 Frontage Rd O500, Austin, TX 78748, USA", "Zip": "78748", "Price_Level(Google)": 2.0, "Rating(Google)": 2.7}}
,{"type": "Feature", "geometry": {"type": "Point", "coordinates": [-97.73, 30.242]}, "properties": {"Name": "China Express", "Address": "1332, 1913 E Riverside Dr, Austin, TX 78741, United States", "Zip": "78741", "Price_Level(Google)": 2.0, "Rating(Google)": 3.8}}
,{"type": "Feature", "geometry": {"type": "Point", "coordinates": [-97.664, 30.314]}, "properties": {"Name": "China Kitchen", "Address": "#180, 7112 Ed Bluestein Blvd, Austin, TX 78723, United States", "Zip": "78723", "Price_Level(Google)": 2.0, "Rating(Google)": 2.6}}
,{"type": "Feature", "geometry": {"type": "Point", "coordinates": [-97.746, 30.418]}, "properties": {"Name": "Super China Restaurant", "Address": "11657 Research Blvd, Austin, TX 78759, USA", "Zip": "78759", "Price_Level(Google)": 2.0, "Rating(Google)": 3.5}}
,{"type": "Feature", "geometry": {"type": "Point", "coordinates": [-97.752, 30.309]}, "properties": {"Name": "Spicy Szechuan Restaurant", "Address": "6206, 3706 Jefferson St, Austin, TX 78731, United States", "Zip": "78731", "Price_Level(Google)": 2.0, "Rating(Google)": 3.8}}
,{"type": "Feature", "geometry": {"type": "Point", "coordinates": [-97.717, 30.296]}, "properties": {"Name": "Tso Chinese Delivery", "Address": "3909 N Interstate Hwy 35 Ste E-5, Austin, TX 78722, USA", "Zip": "78722", "Price_Level(Google)": 0.0, "Rating(Google)": 4.7}}
,{"type": "Feature", "geometry": {"type": "Point", "coordinates": [-97.795, 30.168]}, "properties": {"Name": "Panda Express", "Address": "309 W Slaughter Ln, Austin, TX 78748, USA", "Zip": "78748", "Price_Level(Google)": 1.0, "Rating(Google)": 3.6}}
,{"type": "Feature", "geometry": {"type": "Point", "coordinates": [-97.808, 30.258]}, "properties": {"Name": "Panda Express", "Address": "2901 S Capital of Texas Hwy, Austin, TX 78746, USA", "Zip": "78746", "Price_Level(Google)": 1.0, "Rating(Google)": 3.8}}
,{"type": "Feature", "geometry": {"type": "Point", "coordinates": [-97.741, 30.287]}, "properties": {"Name": "Panda Express", "Address": "Guadalupe St, Austin, TX 78712, USA", "Zip": "78712", "Price_Level(Google)": 1.0, "Rating(Google)": 3.1}}
,{"type": "Feature", "geometry": {"type": "Point", "coordinates": [-97.72, 30.293]}, "properties": {"Name": "DFG Noodles", "Address": "3505 N Interstate 35 Frontage Rd, Austin, TX 78722, USA", "Zip": "78722", "Price_Level(Google)": 0.0, "Rating(Google)": 4.5}}
,{"type": "Feature", "geometry": {"type": "Point", "coordinates": [-97.841, 30.222]}, "properties": {"Name": "Panda Express", "Address": "4301 W William Cannon Dr, Austin, TX 78749, USA", "Zip": "78749", "Price_Level(Google)": 1.0, "Rating(Google)": 3.4}}
,{"type": "Feature", "geometry": {"type": "Point", "coordinates": [-97.839, 30.202]}, "properties": {"Name": "Beijing Wok", "Address": "8106 Brodie Ln # 109, Austin, TX 78745, USA", "Zip": "78745", "Price_Level(Google)": 2.0, "Rating(Google)": 3.0}}
,{"type": "Feature", "geometry": {"type": "Point", "coordinates": [-97.688, 30.33]}, "properties": {"Name": "Oriental Express", "Address": "7517 Cameron Rd, Austin, TX 78752, USA", "Zip": "78752", "Price_Level(Google)": 2.0, "Rating(Google)": 3.4}}
,{"type": "Feature", "geometry": {"type": "Point", "coordinates": [-97.741, 30.361]}, "properties": {"Name": "Suzi's China Grill", "Address": "7858 Shoal Creek Blvd, Austin, TX 78757, USA", "Zip": "78757", "Price_Level(Google)": 2.0, "Rating(Google)": 3.9}}
,{"type": "Feature", "geometry": {"type": "Point", "coordinates": [-97.727, 30.238]}, "properties": {"Name": "Kim Phung Restaurant - Riverside", "Address": "2237 East Riverside Dr 101A, Austin, TX 78741, United States", "Zip": "78741", "Price_Level(Google)": 1.0, "Rating(Google)": 4.4}}
,{"type": "Feature", "geometry": {"type": "Point", "coordinates": [-97.698, 30.407]}, "properties": {"Name": "Little China Restaurant", "Address": "1921 Cedar Bend Dr, Austin, TX 78758, USA", "Zip": "78758", "Price_Level(Google)": 0.0, "Rating(Google)": 4.2}}
,{"type": "Feature", "geometry": {"type": "Point", "coordinates": [-97.699, 30.362]}, "properties": {"Name": "Hunan", "Address": "9306 N Lamar Blvd, Austin, TX 78753, USA", "Zip": "78753", "Price_Level(Google)": 2.0, "Rating(Google)": 3.1}}
,{"type": "Feature", "geometry": {"type": "Point", "coordinates": [-97.746, 30.264]}, "properties": {"Name": "Mama Fu's Asian House", "Address": "100 Colorado St, Austin, TX 78701, USA", "Zip": "78701", "Price_Level(Google)": 2.0, "Rating(Google)": 3.5}}
,{"type": "Feature", "geometry": {"type": "Point", "coordinates": [-97.856, 30.236]}, "properties": {"Name": "Sesame Hill", "Address": "6156 US-290, Austin, TX 78749, USA", "Zip": "78749", "Price_Level(Google)": 0.0, "Rating(Google)": 3.9}}
,{"type": "Feature", "geometry": {"type": "Point", "coordinates": [-97.689, 30.382]}, "properties": {"Name": "Rice Bowl Cafe", "Address": "11220 N Lamar Blvd, Austin, TX 78753, USA", "Zip": "78753", "Price_Level(Google)": 2.0, "Rating(Google)": 4.2}}
,{"type": "Feature", "geometry": {"type": "Point", "coordinates": [-97.676, 30.41]}, "properties": {"Name": "Ho Ho Chinese B.B.Q.", "Address": "13000 I-35, Austin, TX 78753, USA", "Zip": "78753", "Price_Level(Google)": 2.0, "Rating(Google)": 4.1}}
,{"type": "Feature", "geometry": {"type": "Point", "coordinates": [-97.847, 30.185]}, "properties": {"Name": "Wok On Fire", "Address": "9901 Brodie Ln, Austin, TX 78748, USA", "Zip": "78748", "Price_Level(Google)": 2.0, "Rating(Google)": 2.7}}
,{"type": "Feature", "geometry": {"type": "Point", "coordinates": [-97.742, 30.283]}, "properties": {"Name": "CoCo's Cafe", "Address": "1910 Guadalupe St, Austin, TX 78705, USA", "Zip": "78705", "Price_Level(Google)": 2.0, "Rating(Google)": 4.2}}
,{"type": "Feature", "geometry": {"type": "Point", "coordinates": [-97.725, 30.379]}, "properties": {"Name": "China House Restaurant", "Address": "9505 Burnet Rd A, Austin, TX 78758, USA", "Zip": "78758", "Price_Level(Google)": 2.0, "Rating(Google)": 2.7}}
,{"type": "Feature", "geometry": {"type": "Point", "coordinates": [-97.714, 30.322]}, "properties": {"Name": "Panda Express", "Address": "5764 Airport Blvd, Austin, TX 78752, USA", "Zip": "78752", "Price_Level(Google)": 1.0, "Rating(Google)": 3.8}}
,{"type": "Feature", "geometry": {"type": "Point", "coordinates": [-97.716, 30.361]}, "properties": {"Name": "Julie's Noodles", "Address": "#110, 8557 Research Blvd, Austin, TX 78758, United States", "Zip": "78758", "Price_Level(Google)": 0.0, "Rating(Google)": 4.3}}
,{"type": "Feature", "geometry": {"type": "Point", "coordinates": [-97.692, 30.35]}, "properties": {"Name": "Fujian Grand China Buffet", "Address": "8709 N Interstate Hwy 35, Austin, TX 78753, USA", "Zip": "78753", "Price_Level(Google)": 1.0, "Rating(Google)": 3.6}}
,{"type": "Feature", "geometry": {"type": "Point", "coordinates": [-97.729, 30.229]}, "properties": {"Name": "Java Noodles Restaurant", "Address": "2400 E Oltorf St #14, Austin, TX 78741, USA", "Zip": "78741", "Price_Level(Google)": 2.0, "Rating(Google)": 3.9}}
,{"type": "Feature", "geometry": {"type": "Point", "coordinates": [-97.724, 30.237]}, "properties": {"Name": "Joy East", "Address": "2410 E Riverside Dr, Austin, TX 78741, USA", "Zip": "78741", "Price_Level(Google)": 1.0, "Rating(Google)": 3.4}}
,{"type": "Feature", "geometry": {"type": "Point", "coordinates": [-97.72, 30.394]}, "properties": {"Name": "Szechuan House", "Address": "11005 Burnet Rd, Austin, TX 78758, USA", "Zip": "78758", "Price_Level(Google)": 0.0, "Rating(Google)": 3.5}}
,{"type": "Feature", "geometry": {"type": "Point", "coordinates": [-97.791, 30.447]}, "properties": {"Name": "Nanking Restaurant", "Address": "13450 Research Blvd #118, Austin, TX 78750, USA", "Zip": "78750", "Price_Level(Google)": 2.0, "Rating(Google)": 4.2}}
,{"type": "Feature", "geometry": {"type": "Point", "coordinates": [-97.741, 30.283]}, "properties": {"Name": "Hoa-Hoa", "Address": "2025 Guadalupe St, Austin, TX 78705, USA", "Zip": "78705", "Price_Level(Google)": 2.0, "Rating(Google)": 3.8}}
,{"type": "Feature", "geometry": {"type": "Point", "coordinates": [-97.771, 30.432]}, "properties": {"Name": "Asia Cafe", "Address": "Spicewood/183 Center, 8650 Spicewood Springs Rd #114a, Austin, TX 78759, United States", "Zip": "78759", "Price_Level(Google)": 1.0, "Rating(Google)": 4.3}}
,{"type": "Feature", "geometry": {"type": "Point", "coordinates": [-97.789, 30.445]}, "properties": {"Name": "A+A Sichuan China", "Address": "#100 13376, Research Blvd, Austin, TX 78750, United States", "Zip": "78750", "Price_Level(Google)": 0.0, "Rating(Google)": 4.0}}
,{"type": "Feature", "geometry": {"type": "Point", "coordinates": [-97.676, 30.411]}, "properties": {"Name": "Cyclo Vietnamese & Chinese", "Address": "13000 N Interstate Hwy 35 Suite 102, Austin, TX 78753, USA", "Zip": "78753", "Price_Level(Google)": 2.0, "Rating(Google)": 4.0}}
,{"type": "Feature", "geometry": {"type": "Point", "coordinates": [-97.866, 30.233]}, "properties": {"Name": "Chen Z Noodle House", "Address": "6705 U.S. 290, Austin, TX 78735, USA", "Zip": "78735", "Price_Level(Google)": 2.0, "Rating(Google)": 4.3}}
,{"type": "Feature", "geometry": {"type": "Point", "coordinates": [-97.733, 30.311]}, "properties": {"Name": "Wok 'N Express", "Address": "4413 Guadalupe St, Austin, TX 78751, USA", "Zip": "78751", "Price_Level(Google)": 0.0, "Rating(Google)": 4.2}}
,{"type": "Feature", "geometry": {"type": "Point", "coordinates": [-97.758, 30.356]}, "properties": {"Name": "Hao-Q Asian Kitchen", "Address": "3742 Far West Blvd, Austin, TX 78731, USA", "Zip": "78731", "Price_Level(Google)": 0.0, "Rating(Google)": 4.0}}
,{"type": "Feature", "geometry": {"type": "Point", "coordinates": [-97.845, 30.393]}, "properties": {"Name": "Hunan Riverplace Restaurant", "Address": "10601 Ranch Rd 2222, Austin, TX 78730, USA", "Zip": "78730", "Price_Level(Google)": 2.0, "Rating(Google)": 4.2}}
,{"type": "Feature", "geometry": {"type": "Point", "coordinates": [-97.729, 30.363]}, "properties": {"Name": "Shu Shu's Asian Cuisine", "Address": "8303 Burnet Rd 1, Austin, TX 78757, United States", "Zip": "78757", "Price_Level(Google)": 2.0, "Rating(Google)": 4.3}}
,{"type": "Feature", "geometry": {"type": "Point", "coordinates": [-97.745, 30.266]}, "properties": {"Name": "Papadom", "Address": "310 Colorado St, Austin, TX 78701, USA", "Zip": "78701", "Price_Level(Google)": 0.0, "Rating(Google)": 4.0}}
,{"type": "Feature", "geometry": {"type": "Point", "coordinates": [-97.685, 30.446]}, "properties": {"Name": "Four Seasons Chinese Restaurant", "Address": "14735 Bratton Ln, Austin, TX 78728, USA", "Zip": "78728", "Price_Level(Google)": 2.0, "Rating(Google)": 3.8}}
,{"type": "Feature", "geometry": {"type": "Point", "coordinates": [-97.793, 30.234]}, "properties": {"Name": "Dong Nai", "Address": "4211 S Lamar Blvd # E1, Austin, TX 78704, USA", "Zip": "78704", "Price_Level(Google)": 2.0, "Rating(Google)": 4.1}}
,{"type": "Feature", "geometry": {"type": "Point", "coordinates": [-97.705, 30.315]}, "properties": {"Name": "Buffet King", "Address": "5451 I-35, Austin, TX 78723, USA", "Zip": "78723", "Price_Level(Google)": 2.0, "Rating(Google)": 3.7}}
,{"type": "Feature", "geometry": {"type": "Point", "coordinates": [-97.76, 30.279]}, "properties": {"Name": "Galaxy Cafe", "Address": "1000 W Lynn St, Austin, TX 78703, USA", "Zip": "78703", "Price_Level(Google)": 1.0, "Rating(Google)": 4.2}}
,{"type": "Feature", "geometry": {"type": "Point", "coordinates": [-97.733, 30.354]}, "properties": {"Name": "Panda Express", "Address": "7718 Burnet Rd, Austin, TX 78703, USA", "Zip": "78703", "Price_Level(Google)": 1.0, "Rating(Google)": 3.1}}
,{"type": "Feature", "geometry": {"type": "Point", "coordinates": [-97.752, 30.276]}, "properties": {"Name": "Wink", "Address": "1014 N Lamar Blvd, Austin, TX 78703, USA", "Zip": "78703", "Price_Level(Google)": 3.0, "Rating(Google)": 4.3}}
,{"type": "Feature", "geometry": {"type": "Point", "coordinates": [-97.776, 30.283]}, "properties": {"Name": "Maudie's Cafe", "Address": "2608 W 7th St, Austin, TX 78703, USA", "Zip": "78703", "Price_Level(Google)": 2.0, "Rating(Google)": 4.0}}
,{"type": "Feature", "geometry": {"type": "Point", "coordinates": [-97.754, 30.272]}, "properties": {"Name": "24 Diner", "Address": "600 N Lamar Blvd, Austin, TX 78703, USA", "Zip": "78703", "Price_Level(Google)": 2.0, "Rating(Google)": 4.3}}
,{"type": "Feature", "geometry": {"type": "Point", "coordinates": [-97.765, 30.274]}, "properties": {"Name": "Sushi Zushi", "Address": "1611 W 5th St #105, Austin, TX 78703, USA", "Zip": "78703", "Price_Level(Google)": 0.0, "Rating(Google)": 4.1}}
,{"type": "Feature", "geometry": {"type": "Point", "coordinates": [-97.755, 30.272]}, "properties": {"Name": "Snap Kitchen", "Address": "1014 W 6th St, Austin, TX 78703, USA", "Zip": "78703", "Price_Level(Google)": 2.0, "Rating(Google)": 4.2}}
,{"type": "Feature", "geometry": {"type": "Point", "coordinates": [-97.761, 30.273]}, "properties": {"Name": "TNT Tacos and Tequila", "Address": "507 Pressler St, Austin, TX 78703, USA", "Zip": "78703", "Price_Level(Google)": 0.0, "Rating(Google)": 4.1}}
,{"type": "Feature", "geometry": {"type": "Point", "coordinates": [-97.753, 30.27]}, "properties": {"Name": "Austin's Habibi", "Address": "817 W 5th St, Austin, TX 78703, USA", "Zip": "78703", "Price_Level(Google)": 1.0, "Rating(Google)": 4.0}}
,{"type": "Feature", "geometry": {"type": "Point", "coordinates": [-97.772, 30.278]}, "properties": {"Name": "Magnolia Cafe", "Address": "2304 Lake Austin Blvd, Austin, TX 78703, USA", "Zip": "78703", "Price_Level(Google)": 2.0, "Rating(Google)": 4.3}}
,{"type": "Feature", "geometry": {"type": "Point", "coordinates": [-97.759, 30.281]}, "properties": {"Name": "Cipollina", "Address": "1213 W Lynn St, Austin, TX 78703, USA", "Zip": "78703", "Price_Level(Google)": 2.0, "Rating(Google)": 4.2}}
,{"type": "Feature", "geometry": {"type": "Point", "coordinates": [-97.773, 30.279]}, "properties": {"Name": "Fabi + Rosi", "Address": "509 Hearn St, Austin, TX 78703, USA", "Zip": "78703", "Price_Level(Google)": 2.0, "Rating(Google)": 4.7}}
,{"type": "Feature", "geometry": {"type": "Point", "coordinates": [-97.757, 30.273]}, "properties": {"Name": "Caf\u00e9 Josie", "Address": "1200 W 6th St, Austin, TX 78703, USA", "Zip": "78703", "Price_Level(Google)": 3.0, "Rating(Google)": 4.4}}
,{"type": "Feature", "geometry": {"type": "Point", "coordinates": [-97.764, 30.274]}, "properties": {"Name": "Veggie Heaven", "Address": "1611 W 5th St, Austin, TX 78703, USA", "Zip": "78703", "Price_Level(Google)": 1.0, "Rating(Google)": 4.1}}
,{"type": "Feature", "geometry": {"type": "Point", "coordinates": [-97.759, 30.28]}, "properties": {"Name": "Jeffrey's", "Address": "1204 W Lynn St, Austin, TX 78703, USA", "Zip": "78703", "Price_Level(Google)": 3.0, "Rating(Google)": 4.3}}
,{"type": "Feature", "geometry": {"type": "Point", "coordinates": [-97.756, 30.273]}, "properties": {"Name": "Z'Tejas", "Address": "1110 W 6th St, Austin, TX 78703, USA", "Zip": "78703", "Price_Level(Google)": 0.0, "Rating(Google)": 4.0}}
,{"type": "Feature", "geometry": {"type": "Point", "coordinates": [-97.751, 30.308]}, "properties": {"Name": "Brick Oven on 35th", "Address": "1608 W 35th St, Austin, TX 78703, USA", "Zip": "78703", "Price_Level(Google)": 2.0, "Rating(Google)": 4.1}}
,{"type": "Feature", "geometry": {"type": "Point", "coordinates": [-97.764, 30.274]}, "properties": {"Name": "Lucky's Puccias", "Address": "1611 W 5th St #175, Austin, TX 78703, USA", "Zip": "78703", "Price_Level(Google)": 1.0, "Rating(Google)": 4.7}}
,{"type": "Feature", "geometry": {"type": "Point", "coordinates": [-97.759, 30.28]}, "properties": {"Name": "Nau's Enfield Drug", "Address": "1115 W Lynn St, Austin, TX 78703, USA", "Zip": "78703", "Price_Level(Google)": 1.0, "Rating(Google)": 4.2}}
,{"type": "Feature", "geometry": {"type": "Point", "coordinates": [-97.768, 30.297]}, "properties": {"Name": "The Beer Plant", "Address": "3110 Windsor Rd, Austin, TX 78703, USA", "Zip": "78703", "Price_Level(Google)": 2.0, "Rating(Google)": 4.6}}
,{"type": "Feature", "geometry": {"type": "Point", "coordinates": [-97.75, 30.306]}, "properties": {"Name": "Tiny Boxwoods Austin", "Address": "1503 W 35th St, Austin, TX 78703, USA", "Zip": "78703", "Price_Level(Google)": 2.0, "Rating(Google)": 4.4}}
,{"type": "Feature", "geometry": {"type": "Point", "coordinates": [-97.751, 30.307]}, "properties": {"Name": "Olive & June", "Address": "3411 Glenview Ave, Austin, TX 78703, USA", "Zip": "78703", "Price_Level(Google)": 0.0, "Rating(Google)": 4.3}}
,{"type": "Feature", "geometry": {"type": "Point", "coordinates": [-97.766, 30.276]}, "properties": {"Name": "COVER 3 Downtown ATX", "Address": "1717 W 6th St, Austin, TX 78703, USA", "Zip": "78703", "Price_Level(Google)": 2.0, "Rating(Google)": 4.4}}
,{"type": "Feature", "geometry": {"type": "Point", "coordinates": [-97.75, 30.277]}, "properties": {"Name": "House Park Bar-B-Que", "Address": "900 W 12th St, Austin, TX 78703, USA", "Zip": "78703", "Price_Level(Google)": 1.0, "Rating(Google)": 4.1}}
,{"type": "Feature", "geometry": {"type": "Point", "coordinates": [-97.764, 30.304]}, "properties": {"Name": "Food Food", "Address": "2727 Exposition Blvd #112, Austin, TX 78703, USA", "Zip": "78703", "Price_Level(Google)": 0.0, "Rating(Google)": 4.0}}
,{"type": "Feature", "geometry": {"type": "Point", "coordinates": [-97.765, 30.275]}, "properties": {"Name": "El Arroyo", "Address": "1624 W 5th St, Austin, TX 78703, USA", "Zip": "78703", "Price_Level(Google)": 2.0, "Rating(Google)": 3.8}}
,{"type": "Feature", "geometry": {"type": "Point", "coordinates": [-97.773, 30.278]}, "properties": {"Name": "68 Degrees Kitchen", "Address": "2401 Lake Austin Blvd, Austin, TX 78703, USA", "Zip": "78703", "Price_Level(Google)": 2.0, "Rating(Google)": 4.2}}
,{"type": "Feature", "geometry": {"type": "Point", "coordinates": [-97.784, 30.295]}, "properties": {"Name": "Hula Hut", "Address": "3825 Lake Austin Blvd, Austin, TX 78703, USA", "Zip": "78703", "Price_Level(Google)": 2.0, "Rating(Google)": 4.1}}
,{"type": "Feature", "geometry": {"type": "Point", "coordinates": [-97.75, 30.276]}, "properties": {"Name": "ThunderCloud Subs", "Address": "903 W 12th St, Austin, TX 78703, USA", "Zip": "78703", "Price_Level(Google)": 2.0, "Rating(Google)": 4.3}}
,{"type": "Feature", "geometry": {"type": "Point", "coordinates": [-97.765, 30.275]}, "properties": {"Name": "Mean Eyed Cat", "Address": "1621 W 5th St, Austin, TX 78703, USA", "Zip": "78703", "Price_Level(Google)": 0.0, "Rating(Google)": 4.4}}
,{"type": "Feature", "geometry": {"type": "Point", "coordinates": [-97.751, 30.277]}, "properties": {"Name": "The Tavern", "Address": "922 W 12th St, Austin, TX 78703, USA", "Zip": "78703", "Price_Level(Google)": 2.0, "Rating(Google)": 3.9}}
,{"type": "Feature", "geometry": {"type": "Point", "coordinates": [-97.76, 30.274]}, "properties": {"Name": "Nightcap", "Address": "1401 W 6th St, Austin, TX 78703, USA", "Zip": "78703", "Price_Level(Google)": 3.0, "Rating(Google)": 4.4}}
,{"type": "Feature", "geometry": {"type": "Point", "coordinates": [-97.751, 30.27]}, "properties": {"Name": "Hut's Hamburgers", "Address": "807 W 6th St, Austin, TX 78703, USA", "Zip": "78703", "Price_Level(Google)": 1.0, "Rating(Google)": 4.2}}
,{"type": "Feature", "geometry": {"type": "Point", "coordinates": [-97.752, 30.274]}, "properties": {"Name": "Shoal Creek Saloon", "Address": "909 N Lamar Blvd, Austin, TX 78703, USA", "Zip": "78703", "Price_Level(Google)": 2.0, "Rating(Google)": 4.2}}
,{"type": "Feature", "geometry": {"type": "Point", "coordinates": [-97.784, 30.295]}, "properties": {"Name": "Abel's on the Lake", "Address": "3510, 3825 Lake Austin Blvd, Austin, TX 78703, United States", "Zip": "78703", "Price_Level(Google)": 1.0, "Rating(Google)": 3.4}}
,{"type": "Feature", "geometry": {"type": "Point", "coordinates": [-97.76, 30.274]}, "properties": {"Name": "Winflo Osteria", "Address": "1315 W 6th St, Austin, TX 78703, USA", "Zip": "78703", "Price_Level(Google)": 1.0, "Rating(Google)": 4.2}}
,{"type": "Feature", "geometry": {"type": "Point", "coordinates": [-97.751, 30.278]}, "properties": {"Name": "ALC Steaks", "Address": "1205 N Lamar Blvd, Austin, TX 78703, USA", "Zip": "78703", "Price_Level(Google)": 2.0, "Rating(Google)": 4.2}}
,{"type": "Feature", "geometry": {"type": "Point", "coordinates": [-97.752, 30.274]}, "properties": {"Name": "Fresa's - 9th & Lamar", "Address": "915 N Lamar Blvd, Austin, TX 78703, USA", "Zip": "78703", "Price_Level(Google)": 1.0, "Rating(Google)": 4.1}}
,{"type": "Feature", "geometry": {"type": "Point", "coordinates": [-97.753, 30.271]}, "properties": {"Name": "Red Okra", "Address": "525 N Lamar Blvd, Austin, TX 78703, USA", "Zip": "78703", "Price_Level(Google)": 3.0, "Rating(Google)": 0.0}}
,{"type": "Feature", "geometry": {"type": "Point", "coordinates": [-97.754, 30.273]}, "properties": {"Name": "Counter Cafe", "Address": "626 N Lamar Blvd, Austin, TX 78703, USA", "Zip": "78703", "Price_Level(Google)": 2.0, "Rating(Google)": 4.4}}
,{"type": "Feature", "geometry": {"type": "Point", "coordinates": [-97.757, 30.221]}, "properties": {"Name": "Hea Cafe", "Address": "500 E Ben White Blvd # 200, Austin, TX 78704, USA", "Zip": "78704", "Price_Level(Google)": 2.0, "Rating(Google)": 3.8}}
,{"type": "Feature", "geometry": {"type": "Point", "coordinates": [-97.775, 30.248]}, "properties": {"Name": "East Side King", "Address": "2310 S Lamar Blvd #101, Austin, TX 78704, USA", "Zip": "78704", "Price_Level(Google)": 1.0, "Rating(Google)": 4.4}}
,{"type": "Feature", "geometry": {"type": "Point", "coordinates": [-97.762, 30.248]}, "properties": {"Name": "Thai Fresh", "Address": "909 W Mary St, Austin, TX 78704, USA", "Zip": "78704", "Price_Level(Google)": 1.0, "Rating(Google)": 4.1}}
,{"type": "Feature", "geometry": {"type": "Point", "coordinates": [-97.76, 30.258]}, "properties": {"Name": "Uchi", "Address": "801 South Lamar\ufffc \ufffcBoulevard, Austin, TX 78704, USA", "Zip": "78704", "Price_Level(Google)": 3.0, "Rating(Google)": 4.6}}
,{"type": "Feature", "geometry": {"type": "Point", "coordinates": [-97.742, 30.283]}, "properties": {"Name": "China's family restaurant", "Address": "5607, 1914 Guadalupe St suite b, Austin, TX 78705, United States", "Zip": "78705", "Price_Level(Google)": 1.0, "Rating(Google)": 4.7}}
,{"type": "Feature", "geometry": {"type": "Point", "coordinates": [-97.744, 30.288]}, "properties": {"Name": "Little Sheep Mongolian Hot Pot", "Address": "2400 Seton Ave, Austin, TX 78705, USA", "Zip": "78705", "Price_Level(Google)": 0.0, "Rating(Google)": 4.2}}
,{"type": "Feature", "geometry": {"type": "Point", "coordinates": [-97.739, 30.303]}, "properties": {"Name": "YaYa Cafe", "Address": "3706 Guadalupe St b, Austin, TX 78705, USA", "Zip": "78705", "Price_Level(Google)": 1.0, "Rating(Google)": 4.1}}
,{"type": "Feature", "geometry": {"type": "Point", "coordinates": [-97.673, 30.407]}, "properties": {"Name": "Panda Express", "Address": "500 W Canyon Ridge Dr, Austin, TX 78753, USA", "Zip": "78753", "Price_Level(Google)": 1.0, "Rating(Google)": 3.3}}
,{"type": "Feature", "geometry": {"type": "Point", "coordinates": [-97.702, 30.418]}, "properties": {"Name": "Panda Express", "Address": "2501 W Parmer Ln, Austin, TX 78727, USA", "Zip": "78727", "Price_Level(Google)": 1.0, "Rating(Google)": 3.7}}
,{"type": "Feature", "geometry": {"type": "Point", "coordinates": [-97.733, 30.315]}, "properties": {"Name": "Mama Fu's Asian House", "Address": "4700 W Guadalupe St Ste A5, Austin, TX 78751, USA", "Zip": "78751", "Price_Level(Google)": 2.0, "Rating(Google)": 3.4}}
,{"type": "Feature", "geometry": {"type": "Point", "coordinates": [-97.657, 30.45]}, "properties": {"Name": "China Dragon Chinese Restaurant", "Address": "2700 W Pecan St Suite 600, Pflugerville, TX 78660, USA", "Zip": "78660", "Price_Level(Google)": 2.0, "Rating(Google)": 4.2}}
,{"type": "Feature", "geometry": {"type": "Point", "coordinates": [-97.719, 30.299]}, "properties": {"Name": "Pei Wei", "Address": "1000 E 41st St.Suite L-100, Austin, TX 78751, United States", "Zip": "78751", "Price_Level(Google)": 1.0, "Rating(Google)": 3.7}}
,{"type": "Feature", "geometry": {"type": "Point", "coordinates": [-97.542, 30.349]}, "properties": {"Name": "Panda Express", "Address": "11808 Ring Rd, Manor, TX 78653, USA", "Zip": "78653", "Price_Level(Google)": 1.0, "Rating(Google)": 3.4}}
,{"type": "Feature", "geometry": {"type": "Point", "coordinates": [-97.672, 30.416]}, "properties": {"Name": "Pei Wei", "Address": "12901 N I-35 Service Rd. NB Bldg. 15, Suite 1540, Austin, TX 78753, United States", "Zip": "78753", "Price_Level(Google)": 1.0, "Rating(Google)": 3.7}}
,{"type": "Feature", "geometry": {"type": "Point", "coordinates": [-97.672, 30.478]}, "properties": {"Name": "Inchin's Bamboo Garden", "Address": "3107 S Interstate 35 #760, Round Rock, TX 78664, USA", "Zip": "78664", "Price_Level(Google)": 0.0, "Rating(Google)": 3.8}}
,{"type": "Feature", "geometry": {"type": "Point", "coordinates": [-97.714, 30.344]}, "properties": {"Name": "Kim Phung", "Address": "7601 N Lamar Blvd, Austin, TX 78752, USA", "Zip": "78752", "Price_Level(Google)": 1.0, "Rating(Google)": 4.1}}
,{"type": "Feature", "geometry": {"type": "Point", "coordinates": [-97.749, 30.398]}, "properties": {"Name": "Mama Fu's Asian House", "Address": "10710 Research Blvd Ste 328, Austin, TX 78759, USA", "Zip": "78759", "Price_Level(Google)": 0.0, "Rating(Google)": 3.1}}
,{"type": "Feature", "geometry": {"type": "Point", "coordinates": [-97.737, 30.285]}, "properties": {"Name": "Chick-fil-A", "Address": "Student Activities Center (SAC), 2201 Speedway, Austin, TX 78712, United States", "Zip": "78712", "Price_Level(Google)": 1.0, "Rating(Google)": 4.2}}
,{"type": "Feature", "geometry": {"type": "Point", "coordinates": [-97.731, 30.284]}, "properties": {"Name": "The University of Texas Club", "Address": "2108 Robert Dedman Dr, Austin, TX 78712, USA", "Zip": "78712", "Price_Level(Google)": 0.0, "Rating(Google)": 4.5}}
,{"type": "Feature", "geometry": {"type": "Point", "coordinates": [-97.821, 30.229]}, "properties": {"Name": "Mama Fu's Asian House", "Address": "5400 Brodie Ln Ste 1200, Austin, TX 78745, USA", "Zip": "78745", "Price_Level(Google)": 2.0, "Rating(Google)": 3.4}}
,{"type": "Feature", "geometry": {"type": "Point", "coordinates": [-97.778, 30.499]}, "properties": {"Name": "Hunan Ranch", "Address": "14900 Avery Ranch Blvd, Austin, TX 78717, USA", "Zip": "78717", "Price_Level(Google)": 2.0, "Rating(Google)": 4.2}}
,{"type": "Feature", "geometry": {"type": "Point", "coordinates": [-97.767, 30.479]}, "properties": {"Name": "Twin Panda", "Address": "9231 W Parmer Ln #101, Austin, TX 78717, USA", "Zip": "78717", "Price_Level(Google)": 0.0, "Rating(Google)": 4.6}}
,{"type": "Feature", "geometry": {"type": "Point", "coordinates": [-97.802, 30.476]}, "properties": {"Name": "Snow Pea Asian Bistro", "Address": "14028 US-183 #170, Austin, TX 78717, USA", "Zip": "78717", "Price_Level(Google)": 2.0, "Rating(Google)": 4.3}}
,{"type": "Feature", "geometry": {"type": "Point", "coordinates": [-97.772, 30.488]}, "properties": {"Name": "P King", "Address": "4898, 10001 W Parmer Ln, Austin, TX 78717, United States", "Zip": "78717", "Price_Level(Google)": 0.0, "Rating(Google)": 4.0}}
,{"type": "Feature", "geometry": {"type": "Point", "coordinates": [-97.795, 30.467]}, "properties": {"Name": "Xian Sushi and Noodle", "Address": "13201 Ranch Rd 620 N U208, Austin, TX 78717, USA", "Zip": "78717", "Price_Level(Google)": 0.0, "Rating(Google)": 4.3}}
,{"type": "Feature", "geometry": {"type": "Point", "coordinates": [-97.8, 30.478]}, "properties": {"Name": "Mama Fu's Asian House", "Address": "11301 Lakeline Blvd Ste 300, Austin, TX 78717, USA", "Zip": "78717", "Price_Level(Google)": 2.0, "Rating(Google)": 3.4}}
,{"type": "Feature", "geometry": {"type": "Point", "coordinates": [-97.744, 30.446]}, "properties": {"Name": "Eggroll Express", "Address": "6301 W Parmer Ln #202, Austin, TX 78729, USA", "Zip": "78729", "Price_Level(Google)": 2.0, "Rating(Google)": 4.0}}
,{"type": "Feature", "geometry": {"type": "Point", "coordinates": [-97.778, 30.446]}, "properties": {"Name": "DR WOK", "Address": "13201 Pond Springs Rd, Austin, TX 78729, USA", "Zip": "78729", "Price_Level(Google)": 0.0, "Rating(Google)": 3.4}}
,{"type": "Feature", "geometry": {"type": "Point", "coordinates": [-97.815, 30.463]}, "properties": {"Name": "Jenna's Asian Kitchen", "Address": "12300 Ranch Road 620 N, Austin, TX 78750, USA", "Zip": "78750", "Price_Level(Google)": 2.0, "Rating(Google)": 4.3}}
,{"type": "Feature", "geometry": {"type": "Point", "coordinates": [-97.799, 30.479]}, "properties": {"Name": "Lai Lai Chinese Restaurant", "Address": "150 11301 Lakeline Blvd, Austin, TX 78717, USA", "Zip": "78717", "Price_Level(Google)": 0.0, "Rating(Google)": 3.0}}
,{"type": "Feature", "geometry": {"type": "Point", "coordinates": [-97.771, 30.432]}, "properties": {"Name": "Chen's Noodle House", "Address": "8650 Spicewood Springs Rd #127, Austin, TX 78759, USA", "Zip": "78759", "Price_Level(Google)": 2.0, "Rating(Google)": 4.2}}
,{"type": "Feature", "geometry": {"type": "Point", "coordinates": [-97.951, 30.365]}, "properties": {"Name": "China Pacific Restaurant", "Address": "107 Ranch Rd 620 S #107, Austin, TX 78734, USA", "Zip": "78734", "Price_Level(Google)": 2.0, "Rating(Google)": 3.8}}
,{"type": "Feature", "geometry": {"type": "Point", "coordinates": [-97.81, 30.448]}, "properties": {"Name": "Hunan Bistro", "Address": "ste 105 10700, Anderson Mill Rd, Austin, TX 78750, United States", "Zip": "78750", "Price_Level(Google)": 0.0, "Rating(Google)": 4.4}}
,{"type": "Feature", "geometry": {"type": "Point", "coordinates": [-97.668, 30.202]}, "properties": {"Name": "Salt Lick", "Address": "3600 Presidential Blvd, Austin, TX 78719, USA", "Zip": "78719", "Price_Level(Google)": 2.0, "Rating(Google)": 4.0}}
,{"type": "Feature", "geometry": {"type": "Point", "coordinates": [-97.666, 30.202]}, "properties": {"Name": "Auntie Anne's", "Address": "3600 Presidential Blvd #204, Austin, TX 78719, USA", "Zip": "78719", "Price_Level(Google)": 1.0, "Rating(Google)": 3.7}}
,{"type": "Feature", "geometry": {"type": "Point", "coordinates": [-97.584, 30.248]}, "properties": {"Name": "Dragon Express", "Address": "14300 FM 969, Austin, TX 78724, USA", "Zip": "78724", "Price_Level(Google)": 2.0, "Rating(Google)": 4.1}}
,{"type": "Feature", "geometry": {"type": "Point", "coordinates": [-97.668, 30.202]}, "properties": {"Name": "Maudie's", "Address": "3600 Presidential Blvd, Austin, TX 78719, USA", "Zip": "78719", "Price_Level(Google)": 0.0, "Rating(Google)": 1.7}}
,{"type": "Feature", "geometry": {"type": "Point", "coordinates": [-97.666, 30.202]}, "properties": {"Name": "Wok & Roll", "Address": "3600 Presidential Blvd, Austin, TX 78719, USA", "Zip": "78719", "Price_Level(Google)": 2.0, "Rating(Google)": 3.6}}
,{"type": "Feature", "geometry": {"type": "Point", "coordinates": [-97.75, 30.429]}, "properties": {"Name": "Minh's Cafe", "Address": "12221 Riata Trace Pkwy, Austin, TX 78727, USA", "Zip": "78727", "Price_Level(Google)": 2.0, "Rating(Google)": 3.9}}
,{"type": "Feature", "geometry": {"type": "Point", "coordinates": [-97.68, 30.49]}, "properties": {"Name": "China Wall Restaurant", "Address": "2000 N Interstate 35 Frontage Rd G4, Round Rock, TX 78681, USA", "Zip": "78681", "Price_Level(Google)": 2.0, "Rating(Google)": 3.7}}
,{"type": "Feature", "geometry": {"type": "Point", "coordinates": [-97.694, 30.51]}, "properties": {"Name": "Hao Hao Vietnamese & Chinese Restaurant", "Address": "1205 Round Rock Ave #135, Round Rock, TX 78681, USA", "Zip": "78681", "Price_Level(Google)": 2.0, "Rating(Google)": 4.3}}
,{"type": "Feature", "geometry": {"type": "Point", "coordinates": [-97.69, 30.519]}, "properties": {"Name": "Hunan Lion", "Address": "1208 N Interstate Hwy 35, Round Rock, TX 78681, USA", "Zip": "78681", "Price_Level(Google)": 2.0, "Rating(Google)": 3.8}}
,{"type": "Feature", "geometry": {"type": "Point", "coordinates": [-97.687, 30.279]}, "properties": {"Name": "Country Boyz Fixins LLC", "Address": "4140 E 12th St, Austin, TX 78721, USA", "Zip": "78721", "Price_Level(Google)": 1.0, "Rating(Google)": 4.5}}
,{"type": "Feature", "geometry": {"type": "Point", "coordinates": [-97.703, 30.283]}, "properties": {"Name": "Whataburger", "Address": "3210 E Martin Luther King Jr Blvd, Austin, TX 78721, USA", "Zip": "78721", "Price_Level(Google)": 1.0, "Rating(Google)": 3.8}}
,{"type": "Feature", "geometry": {"type": "Point", "coordinates": [-97.695, 30.266]}, "properties": {"Name": "Taqueria La China", "Address": "1005 Springdale Rd, Austin, TX 78721, USA", "Zip": "78721", "Price_Level(Google)": 0.0, "Rating(Google)": 3.0}}
,{"type": "Feature", "geometry": {"type": "Point", "coordinates": [-97.698, 30.438]}, "properties": {"Name": "Wanfu III Asian Diner", "Address": "13717 Burnet Rd, Austin, TX 78727, USA", "Zip": "78727", "Price_Level(Google)": 0.0, "Rating(Google)": 3.5}}
,{"type": "Feature", "geometry": {"type": "Point", "coordinates": [-97.699, 30.303]}, "properties": {"Name": "Xian Sushi and Noodle", "Address": "C370, 1801 E 51st St, Austin, TX 78723, USA", "Zip": "78723", "Price_Level(Google)": 1.0, "Rating(Google)": 4.3}}
,{"type": "Feature", "geometry": {"type": "Point", "coordinates": [-97.598, 30.466]}, "properties": {"Name": "Panda Express", "Address": "18600 Limestone Commercial Dr, Pflugerville, TX 78660, USA", "Zip": "78660", "Price_Level(Google)": 1.0, "Rating(Google)": 3.6}}
,{"type": "Feature", "geometry": {"type": "Point", "coordinates": [-97.671, 30.482]}, "properties": {"Name": "Panda Express", "Address": "120 Louis Henna Blvd, Round Rock, TX 78664, USA", "Zip": "78664", "Price_Level(Google)": 1.0, "Rating(Google)": 3.6}}
,{"type": "Feature", "geometry": {"type": "Point", "coordinates": [-97.827, 30.453]}, "properties": {"Name": "Panda Express", "Address": "11521 N FM 620, Austin, TX 78726, USA", "Zip": "78726", "Price_Level(Google)": 1.0, "Rating(Google)": 3.5}}
,{"type": "Feature", "geometry": {"type": "Point", "coordinates": [-97.698, 30.416]}, "properties": {"Name": "Pok-E-Jo's Smokehouse Inc", "Address": "2121 W Parmer Ln, Austin, TX 78727, USA", "Zip": "78727", "Price_Level(Google)": 0.0, "Rating(Google)": 4.2}}
,{"type": "Feature", "geometry": {"type": "Point", "coordinates": [-97.67, 30.418]}, "properties": {"Name": "Masala Wok Tech Ridge", "Address": "1100 Center Ridge Dr #300, Austin, TX 78753, USA", "Zip": "78753", "Price_Level(Google)": 2.0, "Rating(Google)": 4.1}}
,{"type": "Feature", "geometry": {"type": "Point", "coordinates": [-97.807, 30.471]}, "properties": {"Name": "Panda Express", "Address": "11200 Lakeline Mall Dr, Cedar Park, TX 78613, USA", "Zip": "78613", "Price_Level(Google)": 1.0, "Rating(Google)": 2.9}}
,{"type": "Feature", "geometry": {"type": "Point", "coordinates": [-97.789, 30.447]}, "properties": {"Name": "Pei Wei", "Address": "13429 N Hwy 183, Austin, TX 78750, United States", "Zip": "78750", "Price_Level(Google)": 1.0, "Rating(Google)": 3.6}}
,{"type": "Feature", "geometry": {"type": "Point", "coordinates": [-97.717, 30.425]}, "properties": {"Name": "Thai Cuisine", "Address": "4101 W Parmer Ln F, Austin, TX 78727, USA", "Zip": "78727", "Price_Level(Google)": 2.0, "Rating(Google)": 4.4}}
,{"type": "Feature", "geometry": {"type": "Point", "coordinates": [-97.661, 30.518]}, "properties": {"Name": "Panda Express", "Address": "1700 E Palm Valley Blvd, Round Rock, TX 78664, USA", "Zip": "78664", "Price_Level(Google)": 1.0, "Rating(Google)": 3.5}}
,{"type": "Feature", "geometry": {"type": "Point", "coordinates": [-97.689, 30.414]}, "properties": {"Name": "Domino's Pizza", "Address": "1700 W Parmer Ln, Austin, TX 78727, USA", "Zip": "78727", "Price_Level(Google)": 1.0, "Rating(Google)": 4.2}}
,{"type": "Feature", "geometry": {"type": "Point", "coordinates": [-97.684, 30.48]}, "properties": {"Name": "BO ASIAN BISTRO", "Address": "2711 La Frontera Blvd #260, Round Rock, TX 78681, USA", "Zip": "78681", "Price_Level(Google)": 2.0, "Rating(Google)": 4.0}}
,{"type": "Feature", "geometry": {"type": "Point", "coordinates": [-97.698, 30.416]}, "properties": {"Name": "Chutney", "Address": "2121 W Parmer Ln Suite 114, Austin, TX 78727, USA", "Zip": "78727", "Price_Level(Google)": 1.0, "Rating(Google)": 3.7}}
,{"type": "Feature", "geometry": {"type": "Point", "coordinates": [-97.834, 30.52]}, "properties": {"Name": "Panda Express", "Address": "401 W Whitestone Blvd, Cedar Park, TX 78613, USA", "Zip": "78613", "Price_Level(Google)": 1.0, "Rating(Google)": 3.4}}
,{"type": "Feature", "geometry": {"type": "Point", "coordinates": [-97.691, 30.555]}, "properties": {"Name": "Panda Express", "Address": "111 University Oaks Blvd, Round Rock, TX 78664, USA", "Zip": "78664", "Price_Level(Google)": 1.0, "Rating(Google)": 4.0}}
,{"type": "Feature", "geometry": {"type": "Point", "coordinates": [-97.69, 30.412]}, "properties": {"Name": "Wingstop", "Address": "1701 W Parmer Ln #104, Austin, TX 78727, USA", "Zip": "78727", "Price_Level(Google)": 1.0, "Rating(Google)": 3.5}}
,{"type": "Feature", "geometry": {"type": "Point", "coordinates": [-97.689, 30.414]}, "properties": {"Name": "The Original Pancake House", "Address": "1700 W Parmer Ln #650, Austin, TX 78727, USA", "Zip": "78727", "Price_Level(Google)": 0.0, "Rating(Google)": 4.1}}
,{"type": "Feature", "geometry": {"type": "Point", "coordinates": [-97.717, 30.425]}, "properties": {"Name": "Tomodachi Sushi", "Address": "4101 W Parmer Ln, Austin, TX 78727, USA", "Zip": "78727", "Price_Level(Google)": 2.0, "Rating(Google)": 4.5}}
,{"type": "Feature", "geometry": {"type": "Point", "coordinates": [-97.703, 30.419]}, "properties": {"Name": "Chick-fil-A", "Address": "12501 N Mopac Expy, Austin, TX 78727, USA", "Zip": "78727", "Price_Level(Google)": 1.0, "Rating(Google)": 4.3}}
,{"type": "Feature", "geometry": {"type": "Point", "coordinates": [-97.745, 30.442]}, "properties": {"Name": "Smokey MO's BBQ", "Address": "6001 West Parmer Lane Suite 360, Austin, TX 78727, United States", "Zip": "78727", "Price_Level(Google)": 2.0, "Rating(Google)": 4.1}}
,{"type": "Feature", "geometry": {"type": "Point", "coordinates": [-97.69, 30.413]}, "properties": {"Name": "KFC", "Address": "1700 W Parmer Ln, Austin, TX 78727, USA", "Zip": "78727", "Price_Level(Google)": 1.0, "Rating(Google)": 3.7}}
,{"type": "Feature", "geometry": {"type": "Point", "coordinates": [-97.804, 30.448]}, "properties": {"Name": "Shanghai Noodle House", "Address": "10300 Anderson Mill Rd Suite A, Austin, TX 78750, USA", "Zip": "78750", "Price_Level(Google)": 0.0, "Rating(Google)": 4.5}}
,{"type": "Feature", "geometry": {"type": "Point", "coordinates": [-97.893, 30.37]}, "properties": {"Name": "Kawa Asian Kitchen", "Address": "2900 N Quinlan Park Rd, Austin, TX 78732, USA", "Zip": "78732", "Price_Level(Google)": 0.0, "Rating(Google)": 4.0}}
,{"type": "Feature", "geometry": {"type": "Point", "coordinates": [-97.748, 30.357]}, "properties": {"Name": "Street Restaurant", "Address": "3407 Greystone Dr, Austin, TX 78731, USA", "Zip": "78731", "Price_Level(Google)": 2.0, "Rating(Google)": 4.5}}
,{"type": "Feature", "geometry": {"type": "Point", "coordinates": [-97.686, 30.379]}, "properties": {"Name": "First Chinese BBQ", "Address": "10901 N Lamar Blvd, Austin, TX 78753, USA", "Zip": "78753", "Price_Level(Google)": 2.0, "Rating(Google)": 4.3}}
,{"type": "Feature", "geometry": {"type": "Point", "coordinates": [-97.687, 30.379]}, "properties": {"Name": "TC Noodle House Restaurant", "Address": "10901 N Lamar Blvd, Austin, TX 78753, USA", "Zip": "78753", "Price_Level(Google)": 2.0, "Rating(Google)": 4.2}}
,{"type": "Feature", "geometry": {"type": "Point", "coordinates": [-97.83, 30.213]}, "properties": {"Name": "Me Con Bistro", "Address": "101, 5019, 3421 W William Cannon Dr, Austin, TX 78745, United States", "Zip": "78745", "Price_Level(Google)": 0.0, "Rating(Google)": 4.4}}
,{"type": "Feature", "geometry": {"type": "Point", "coordinates": [-97.688, 30.378]}, "properties": {"Name": "Duy Vietnamese Restaurant", "Address": "10901 N Lamar Blvd Suite A101, Austin, TX 78753, USA", "Zip": "78753", "Price_Level(Google)": 0.0, "Rating(Google)": 4.3}}
,{"type": "Feature", "geometry": {"type": "Point", "coordinates": [-97.885, 30.333]}, "properties": {"Name": "Ronnie's Real Food Bistro", "Address": "205 N Commons Ford Rd #2, Austin, TX 78733, USA", "Zip": "78733", "Price_Level(Google)": 0.0, "Rating(Google)": 4.7}}
,{"type": "Feature", "geometry": {"type": "Point", "coordinates": [-97.804, 30.335]}, "properties": {"Name": "Jade Restaurant", "Address": "3801 N Capital of Texas Hwy C-200, Austin, TX 78746, USA", "Zip": "78746", "Price_Level(Google)": 2.0, "Rating(Google)": 4.5}}
,{"type": "Feature", "geometry": {"type": "Point", "coordinates": [-97.943, 30.309]}, "properties": {"Name": "Pei Wei", "Address": "12913 Galleria Cir Suite 101, Bee Cave, TX 78738, USA", "Zip": "78738", "Price_Level(Google)": 1.0, "Rating(Google)": 3.0}}
,{"type": "Feature", "geometry": {"type": "Point", "coordinates": [-97.863, 30.34]}, "properties": {"Name": "Austin's Pizza - Cuernavaca", "Address": "1705 Cuernavaca Dr N, Austin, TX 78733, USA", "Zip": "78733", "Price_Level(Google)": 0.0, "Rating(Google)": 4.1}}
,{"type": "Feature", "geometry": {"type": "Point", "coordinates": [-97.863, 30.341]}, "properties": {"Name": "M&H Music Cafe", "Address": "1803 Cuernavaca Dr N, Austin, TX 78733, USA", "Zip": "78733", "Price_Level(Google)": 0.0, "Rating(Google)": 5.0}}
,{"type": "Feature", "geometry": {"type": "Point", "coordinates": [-97.971, 30.343]}, "properties": {"Name": "Thai Spice Restaurant", "Address": "2121 Lohmans Crossing Rd, Austin, TX 78734, USA", "Zip": "78734", "Price_Level(Google)": 0.0, "Rating(Google)": 4.2}}
,{"type": "Feature", "geometry": {"type": "Point", "coordinates": [-97.972, 30.338]}, "properties": {"Name": "Pao's Mandarin House", "Address": "2300 Lohmans Spur, Austin, TX 78734, USA", "Zip": "78734", "Price_Level(Google)": 2.0, "Rating(Google)": 3.9}}
,{"type": "Feature", "geometry": {"type": "Point", "coordinates": [-97.875, 30.236]}, "properties": {"Name": "Thai Taste", "Address": "7010 TX-71 #180, Austin, TX 78735, USA", "Zip": "78735", "Price_Level(Google)": 2.0, "Rating(Google)": 4.1}}
,{"type": "Feature", "geometry": {"type": "Point", "coordinates": [-97.865, 30.233]}, "properties": {"Name": "Lavon Chinese", "Address": "6705 US-290, Austin, TX 78735, USA", "Zip": "78735", "Price_Level(Google)": 0.0, "Rating(Google)": 0.0}}
,{"type": "Feature", "geometry": {"type": "Point", "coordinates": [-97.878, 30.235]}, "properties": {"Name": "Eurasia Sushi Bar & Seafood", "Address": "7101 TX-71 C13, Austin, TX 78735, USA", "Zip": "78735", "Price_Level(Google)": 2.0, "Rating(Google)": 4.5}}
,{"type": "Feature", "geometry": {"type": "Point", "coordinates": [-97.883, 30.244]}, "properties": {"Name": "Jack Allen's Kitchen Oak Hill", "Address": "7720 TX-71, Austin, TX 78735, USA", "Zip": "78735", "Price_Level(Google)": 2.0, "Rating(Google)": 4.6}}
,{"type": "Feature", "geometry": {"type": "Point", "coordinates": [-97.866, 30.233]}, "properties": {"Name": "Via 313 Pizza", "Address": "6705 US-290, Austin, TX 78735, USA", "Zip": "78735", "Price_Level(Google)": 1.0, "Rating(Google)": 4.6}}
,{"type": "Feature", "geometry": {"type": "Point", "coordinates": [-97.876, 30.234]}, "properties": {"Name": "Jim's", "Address": "Austin, TX 78735, USA", "Zip": "78735", "Price_Level(Google)": 2.0, "Rating(Google)": 4.2}}
,{"type": "Feature", "geometry": {"type": "Point", "coordinates": [-97.82, 30.235]}, "properties": {"Name": "Craig O's Pizza & Pastaria", "Address": "4970 W US Hwy 290 Service Rd, Austin, TX 78735, USA", "Zip": "78735", "Price_Level(Google)": 2.0, "Rating(Google)": 4.1}}
,{"type": "Feature", "geometry": {"type": "Point", "coordinates": [-97.855, 30.236]}, "properties": {"Name": "Taqueria Chapala 3", "Address": "6116 W US Hwy 290 Service Rd, Austin, TX 78735, USA", "Zip": "78735", "Price_Level(Google)": 2.0, "Rating(Google)": 4.4}}
,{"type": "Feature", "geometry": {"type": "Point", "coordinates": [-97.821, 30.235]}, "properties": {"Name": "Applebee\u2019s Grill + Bar", "Address": "5010 W US Hwy 290 Service Rd, Austin, TX 78735, USA", "Zip": "78735", "Price_Level(Google)": 2.0, "Rating(Google)": 3.6}}
,{"type": "Feature", "geometry": {"type": "Point", "coordinates": [-97.801, 30.23]}, "properties": {"Name": "Buffet Palace", "Address": "4608 West Gate Blvd, Austin, TX 78745, USA", "Zip": "78745", "Price_Level(Google)": 2.0, "Rating(Google)": 4.1}}
,{"type": "Feature", "geometry": {"type": "Point", "coordinates": [-97.843, 30.223]}, "properties": {"Name": "Flores Mexican Restaurant", "Address": "4625 W William Cannon Dr, Austin, TX 78749, USA", "Zip": "78749", "Price_Level(Google)": 0.0, "Rating(Google)": 4.2}}
,{"type": "Feature", "geometry": {"type": "Point", "coordinates": [-97.859, 30.236]}, "properties": {"Name": "Austin Pizza Garden", "Address": "6266 US-290, Austin, TX 78735, USA", "Zip": "78735", "Price_Level(Google)": 0.0, "Rating(Google)": 4.3}}
,{"type": "Feature", "geometry": {"type": "Point", "coordinates": [-97.794, 30.155]}, "properties": {"Name": "The Green Mesquite BBQ", "Address": "9900 I-35, Austin, TX 78748, USA", "Zip": "78748", "Price_Level(Google)": 2.0, "Rating(Google)": 3.6}}
,{"type": "Feature", "geometry": {"type": "Point", "coordinates": [-97.822, 30.236]}, "properties": {"Name": "Serranos Cocina y Cantina - Mopac", "Address": "5030 W US Hwy 290 Service Rd, Austin, TX 78735, USA", "Zip": "78735", "Price_Level(Google)": 2.0, "Rating(Google)": 4.3}}
,{"type": "Feature", "geometry": {"type": "Point", "coordinates": [-97.832, 30.239]}, "properties": {"Name": "Milano Cafe", "Address": "4601 Southwest Pkwy, Austin, TX 78735, USA", "Zip": "78735", "Price_Level(Google)": 2.0, "Rating(Google)": 4.4}}
,{"type": "Feature", "geometry": {"type": "Point", "coordinates": [-97.866, 30.233]}, "properties": {"Name": "Chinos Banditos", "Address": "6705 W US Hwy 290 Service Rd Ste 608, Austin, TX 78735, USA", "Zip": "78735", "Price_Level(Google)": 0.0, "Rating(Google)": 4.7}}
,{"type": "Feature", "geometry": {"type": "Point", "coordinates": [-97.877, 30.235]}, "properties": {"Name": "Golden Chick", "Address": "7101 State Hwy 71 W., Austin, TX 78736, United States", "Zip": "78736", "Price_Level(Google)": 0.0, "Rating(Google)": 4.0}}
,{"type": "Feature", "geometry": {"type": "Point", "coordinates": [-97.879, 30.097]}, "properties": {"Name": "Beijing Bistro - Buda", "Address": "3420-B FM 967 B110, Buda, TX 78610, United States", "Zip": "78610", "Price_Level(Google)": 0.0, "Rating(Google)": 3.8}}
,{"type": "Feature", "geometry": {"type": "Point", "coordinates": [-98.0, 30.23]}, "properties": {"Name": "Stanley's Farmhouse Pizza", "Address": "Ceres Park Ranch, 13187 Fitzhugh Rd, Austin, TX 78736, United States", "Zip": "78736", "Price_Level(Google)": 0.0, "Rating(Google)": 4.6}}
,{"type": "Feature", "geometry": {"type": "Point", "coordinates": [-97.984, 30.204]}, "properties": {"Name": "Trudy's Four Star", "Address": "13059 Four Star Blvd, Austin, TX 78737, USA", "Zip": "78737", "Price_Level(Google)": 2.0, "Rating(Google)": 3.7}}
,{"type": "Feature", "geometry": {"type": "Point", "coordinates": [-97.934, 30.23]}, "properties": {"Name": "Lox, Box & Barrel", "Address": "9521 US-290 #100, Austin, TX 78737, USA", "Zip": "78737", "Price_Level(Google)": 1.0, "Rating(Google)": 4.5}}
,{"type": "Feature", "geometry": {"type": "Point", "coordinates": [-97.975, 30.209]}, "properties": {"Name": "Aroi Thai Cuisine", "Address": "12024 US-290, Austin, TX 78737, USA", "Zip": "78737", "Price_Level(Google)": 0.0, "Rating(Google)": 4.4}}
,{"type": "Feature", "geometry": {"type": "Point", "coordinates": [-97.966, 30.213]}, "properties": {"Name": "Papa John's Pizza", "Address": "11601 Us Highway 290, Unit B 100, Austin, TX 78737, United States", "Zip": "78737", "Price_Level(Google)": 0.0, "Rating(Google)": 2.7}}
,{"type": "Feature", "geometry": {"type": "Point", "coordinates": [-97.968, 30.211]}, "properties": {"Name": "Pieous", "Address": "12005 US-290, Austin, TX 78737, USA", "Zip": "78737", "Price_Level(Google)": 1.0, "Rating(Google)": 4.7}}
,{"type": "Feature", "geometry": {"type": "Point", "coordinates": [-97.862, 30.013]}, "properties": {"Name": "Mama Fu's Asian House", "Address": "151 Evans Dr Ste 111, Kyle, TX 78640, USA", "Zip": "78640", "Price_Level(Google)": 0.0, "Rating(Google)": 2.6}}
,{"type": "Feature", "geometry": {"type": "Point", "coordinates": [-97.862, 30.012]}, "properties": {"Name": "Panda Express", "Address": "5261 Kyle Center Dr, Kyle, TX 78640, USA", "Zip": "78640", "Price_Level(Google)": 1.0, "Rating(Google)": 3.8}}
,{"type": "Feature", "geometry": {"type": "Point", "coordinates": [-97.792, 30.185]}, "properties": {"Name": "Dragon Delights", "Address": "7800 S 1st St, Austin, TX 78745, USA", "Zip": "78745", "Price_Level(Google)": 1.0, "Rating(Google)": 4.5}}
,{"type": "Feature", "geometry": {"type": "Point", "coordinates": [-97.819, 30.226]}, "properties": {"Name": "Fire Bowl Cafe", "Address": "5601 Brodie Ln # 550, Sunset Valley, TX 78745, USA", "Zip": "78745", "Price_Level(Google)": 2.0, "Rating(Google)": 3.9}}
,{"type": "Feature", "geometry": {"type": "Point", "coordinates": [-97.878, 30.235]}, "properties": {"Name": "Dynasty Buffet Oakhill", "Address": "7101 TX-71, Austin, TX 78735, USA", "Zip": "78735", "Price_Level(Google)": 0.0, "Rating(Google)": 2.0}}
,{"type": "Feature", "geometry": {"type": "Point", "coordinates": [-97.953, 30.309]}, "properties": {"Name": "The Emerald Restaurant", "Address": "3107, 13614 TX-71, Austin, TX 78738, United States", "Zip": "78738", "Price_Level(Google)": 3.0, "Rating(Google)": 4.4}}
,{"type": "Feature", "geometry": {"type": "Point", "coordinates": [-97.968, 30.334]}, "properties": {"Name": "The Grove Wine Bar & Kitchen - Lakeway", "Address": "3001 Ranch Rd 620 S, Austin, TX 78738, USA", "Zip": "78738", "Price_Level(Google)": 2.0, "Rating(Google)": 4.4}}
,{"type": "Feature", "geometry": {"type": "Point", "coordinates": [-97.937, 30.305]}, "properties": {"Name": "Maudie's Hill Country", "Address": "12506 Shops Pkwy, Austin, TX 78738, USA", "Zip": "78738", "Price_Level(Google)": 2.0, "Rating(Google)": 3.9}}
,{"type": "Feature", "geometry": {"type": "Point", "coordinates": [-97.936, 30.307]}, "properties": {"Name": "Madam Mam's", "Address": "3929 Market St, Bee Cave, TX 78738, USA", "Zip": "78738", "Price_Level(Google)": 1.0, "Rating(Google)": 3.9}}
,{"type": "Feature", "geometry": {"type": "Point", "coordinates": [-97.945, 30.307]}, "properties": {"Name": "Simply Pho House", "Address": "12918 Shops Pkwy, Austin, TX 78738, USA", "Zip": "78738", "Price_Level(Google)": 0.0, "Rating(Google)": 3.8}}
,{"type": "Feature", "geometry": {"type": "Point", "coordinates": [-97.953, 30.319]}, "properties": {"Name": "Chick-fil-A", "Address": "3600 Ranch Rd 620 S C, Austin, TX 78738, USA", "Zip": "78738", "Price_Level(Google)": 1.0, "Rating(Google)": 4.5}}
,{"type": "Feature", "geometry": {"type": "Point", "coordinates": [-97.939, 30.307]}, "properties": {"Name": "Chili's Grill & Bar", "Address": "12713 Galleria Cir, Bee Cave, TX 78738, USA", "Zip": "78738", "Price_Level(Google)": 1.0, "Rating(Google)": 4.0}}
,{"type": "Feature", "geometry": {"type": "Point", "coordinates": [-97.942, 30.309]}, "properties": {"Name": "Panera Bread", "Address": "12901 Hill Country Blvd, Bee Cave, TX 78738, USA", "Zip": "78738", "Price_Level(Google)": 1.0, "Rating(Google)": 3.5}}
,{"type": "Feature", "geometry": {"type": "Point", "coordinates": [-97.94, 30.309]}, "properties": {"Name": "Cafe Blue at Hill Country Galleria", "Address": "12800 Hill Country Blvd. Suite G-115, Bee Cave, TX 78738, United States", "Zip": "78738", "Price_Level(Google)": 2.0, "Rating(Google)": 4.1}}
,{"type": "Feature", "geometry": {"type": "Point", "coordinates": [-97.943, 30.306]}, "properties": {"Name": "Plate By Dzintra", "Address": "12823 Shops Pkwy, Austin, TX 78738, USA", "Zip": "78738", "Price_Level(Google)": 0.0, "Rating(Google)": 4.7}}
,{"type": "Feature", "geometry": {"type": "Point", "coordinates": [-97.936, 30.307]}, "properties": {"Name": "Jersey Mike's Subs", "Address": "4005 Market St #140, Bee Cave, TX 78738, USA", "Zip": "78738", "Price_Level(Google)": 1.0, "Rating(Google)": 4.0}}
,{"type": "Feature", "geometry": {"type": "Point", "coordinates": [-97.942, 30.305]}, "properties": {"Name": "Mandola's Italian", "Address": "12815 Shops Pkwy #400, Bee Cave, TX 78738, USA", "Zip": "78738", "Price_Level(Google)": 2.0, "Rating(Google)": 4.3}}
,{"type": "Feature", "geometry": {"type": "Point", "coordinates": [-97.971, 30.34]}, "properties": {"Name": "Cho Sushi Japanese Fusion", "Address": "2422 Ranch Rd 620 S, Austin, TX 78738, USA", "Zip": "78738", "Price_Level(Google)": 0.0, "Rating(Google)": 4.7}}
,{"type": "Feature", "geometry": {"type": "Point", "coordinates": [-97.938, 30.308]}, "properties": {"Name": "Chisos Grill", "Address": "12700 Hill Country Blvd S - 100, Bee Cave, TX 78738, USA", "Zip": "78738", "Price_Level(Google)": 0.0, "Rating(Google)": 4.1}}
,{"type": "Feature", "geometry": {"type": "Point", "coordinates": [-97.942, 30.305]}, "properties": {"Name": "Fuddruckers", "Address": "12815 Shops Pkwy Ste. 100, Bee Cave, TX 78738, USA", "Zip": "78738", "Price_Level(Google)": 2.0, "Rating(Google)": 4.0}}
,{"type": "Feature", "geometry": {"type": "Point", "coordinates": [-97.924, 30.308]}, "properties": {"Name": "Napoli's Craft & Kitchen", "Address": "11905 Bee Caves Rd #11, Austin, TX 78738, USA", "Zip": "78738", "Price_Level(Google)": 0.0, "Rating(Google)": 4.0}}
,{"type": "Feature", "geometry": {"type": "Point", "coordinates": [-97.97, 30.341]}, "properties": {"Name": "Little Greek", "Address": "2422 Ranch Rd 620 S, Austin, TX 78738, USA", "Zip": "78738", "Price_Level(Google)": 0.0, "Rating(Google)": 4.3}}
,{"type": "Feature", "geometry": {"type": "Point", "coordinates": [-98.008, 30.298]}, "properties": {"Name": "Verde's Mexican Parrilla", "Address": "16018 Hamilton Pool Rd, Austin, TX 78738, USA", "Zip": "78738", "Price_Level(Google)": 2.0, "Rating(Google)": 4.4}}
,{"type": "Feature", "geometry": {"type": "Point", "coordinates": [-97.97, 30.341]}, "properties": {"Name": "Papa John's Pizza", "Address": "2422 Ranch Rd 620 S, Austin, TX 78738, USA", "Zip": "78738", "Price_Level(Google)": 1.0, "Rating(Google)": 4.1}}
,{"type": "Feature", "geometry": {"type": "Point", "coordinates": [-97.933, 30.306]}, "properties": {"Name": "Rocco's Grill", "Address": "12432 Bee Caves Rd, Bee Cave, TX 78738, USA", "Zip": "78738", "Price_Level(Google)": 3.0, "Rating(Google)": 4.3}}
,{"type": "Feature", "geometry": {"type": "Point", "coordinates": [-97.938, 30.307]}, "properties": {"Name": "Mimi's Cafe", "Address": "12613 Galleria Pkwy, Bee Cave, TX 78738, USA", "Zip": "78738", "Price_Level(Google)": 2.0, "Rating(Google)": 3.6}}
,{"type": "Feature", "geometry": {"type": "Point", "coordinates": [-97.936, 30.306]}, "properties": {"Name": "Schmidt Family Barbecue", "Address": "12532 Farm to Market 2244, Bee Cave, TX 78738, USA", "Zip": "78738", "Price_Level(Google)": 2.0, "Rating(Google)": 4.0}}
,{"type": "Feature", "geometry": {"type": "Point", "coordinates": [-97.936, 30.306]}, "properties": {"Name": "Einstein Bros. Bagels", "Address": "12532 FM 2244 Rd Bldg 2, Bee Cave, TX 78738, United States", "Zip": "78738", "Price_Level(Google)": 1.0, "Rating(Google)": 3.7}}
,{"type": "Feature", "geometry": {"type": "Point", "coordinates": [-97.941, 30.309]}, "properties": {"Name": "Tadashi", "Address": "12820 Hill Country Blvd E-105, Bee Cave, TX 78738, USA", "Zip": "78738", "Price_Level(Google)": 0.0, "Rating(Google)": 4.0}}
,{"type": "Feature", "geometry": {"type": "Point", "coordinates": [-98.065, 30.287]}, "properties": {"Name": "Proof & Cooper", "Address": "18710 Hamilton Pool Rd, Austin, TX 78738, USA", "Zip": "78738", "Price_Level(Google)": 2.0, "Rating(Google)": 3.9}}
,{"type": "Feature", "geometry": {"type": "Point", "coordinates": [-97.87, 30.2]}, "properties": {"Name": "zpizza", "Address": "5701 W Slaughter Ln A160, Austin, TX 78749, USA", "Zip": "78749", "Price_Level(Google)": 0.0, "Rating(Google)": 3.7}}
,{"type": "Feature", "geometry": {"type": "Point", "coordinates": [-97.73, 30.23]}, "properties": {"Name": "888 Pan Asian Restaurant", "Address": "2400 E Oltorf St #1A, Austin, TX 78741, USA", "Zip": "78741", "Price_Level(Google)": 1.0, "Rating(Google)": 4.5}}
,{"type": "Feature", "geometry": {"type": "Point", "coordinates": [-97.736, 30.267]}, "properties": {"Name": "Koriente", "Address": "621 E 7th St, Austin, TX 78701, USA", "Zip": "78701", "Price_Level(Google)": 1.0, "Rating(Google)": 4.4}}
,{"type": "Feature", "geometry": {"type": "Point", "coordinates": [-97.868, 30.2]}, "properties": {"Name": "North by Northwest Restaurant & Brewery - Slaughter", "Address": "5701 W Slaughter Ln D, Austin, TX 78749, USA", "Zip": "78749", "Price_Level(Google)": 0.0, "Rating(Google)": 4.2}}
,{"type": "Feature", "geometry": {"type": "Point", "coordinates": [-97.863, 30.228]}, "properties": {"Name": "Hecho En Mexico", "Address": "6001 W William Cannon Dr # 301, Austin, TX 78749, USA", "Zip": "78749", "Price_Level(Google)": 2.0, "Rating(Google)": 4.4}}
,{"type": "Feature", "geometry": {"type": "Point", "coordinates": [-97.842, 30.218]}, "properties": {"Name": "Chuy's", "Address": "4301 W William Cannon Dr, Austin, TX 78749, USA", "Zip": "78749", "Price_Level(Google)": 0.0, "Rating(Google)": 4.4}}
,{"type": "Feature", "geometry": {"type": "Point", "coordinates": [-97.84, 30.222]}, "properties": {"Name": "Torchy's Tacos", "Address": "4301 W. William Cannon Dr, G-400, Austin, TX 78749, United States", "Zip": "78749", "Price_Level(Google)": 1.0, "Rating(Google)": 4.4}}
,{"type": "Feature", "geometry": {"type": "Point", "coordinates": [-97.839, 30.22]}, "properties": {"Name": "Cheddar's Scratch Kitchen", "Address": "4301 W. William Cannon Dr., Bldg. D, Austin, TX 78749, United States", "Zip": "78749", "Price_Level(Google)": 2.0, "Rating(Google)": 3.9}}
,{"type": "Feature", "geometry": {"type": "Point", "coordinates": [-97.841, 30.223]}, "properties": {"Name": "Kerbey Lane Cafe", "Address": "4301 W William Cannon Dr, Austin, TX 78749, USA", "Zip": "78749", "Price_Level(Google)": 1.0, "Rating(Google)": 4.3}}
,{"type": "Feature", "geometry": {"type": "Point", "coordinates": [-97.835, 30.22]}, "properties": {"Name": "Whataburger", "Address": "6611 S Mo Pac Expy, Bldg B, Austin, TX 78749, United States", "Zip": "78749", "Price_Level(Google)": 1.0, "Rating(Google)": 4.1}}
,{"type": "Feature", "geometry": {"type": "Point", "coordinates": [-97.841, 30.222]}, "properties": {"Name": "Firehouse Subs", "Address": "4301 W William Cannon Dr #180, Austin, TX 78749, USA", "Zip": "78749", "Price_Level(Google)": 1.0, "Rating(Google)": 4.0}}
,{"type": "Feature", "geometry": {"type": "Point", "coordinates": [-97.841, 30.221]}, "properties": {"Name": "DoubleDave's Arbor Trails", "Address": "4301 W William Cannon Dr, Austin, TX 78749, USA", "Zip": "78749", "Price_Level(Google)": 1.0, "Rating(Google)": 3.9}}
,{"type": "Feature", "geometry": {"type": "Point", "coordinates": [-97.726, 30.323]}, "properties": {"Name": "Mr. Delivery", "Address": "5555 N. Lamar Blvd J107, Austin, TX 78751, United States", "Zip": "78751", "Price_Level(Google)": 0.0, "Rating(Google)": 1.0}}
,{"type": "Feature", "geometry": {"type": "Point", "coordinates": [-97.727, 30.325]}, "properties": {"Name": "DK Sushi", "Address": "5610b N Lamar Blvd, Austin, TX 78751, USA", "Zip": "78751", "Price_Level(Google)": 2.0, "Rating(Google)": 4.5}}
,{"type": "Feature", "geometry": {"type": "Point", "coordinates": [-97.71, 30.321]}, "properties": {"Name": "IHOP", "Address": "901 E Koenig Ln, Austin, TX 78751, USA", "Zip": "78751", "Price_Level(Google)": 1.0, "Rating(Google)": 3.6}}
,{"type": "Feature", "geometry": {"type": "Point", "coordinates": [-97.708, 30.319]}, "properties": {"Name": "Amaya's Taco Village", "Address": "5804 N Interstate 35 Frontage Rd, Austin, TX 78751, USA", "Zip": "78751", "Price_Level(Google)": 1.0, "Rating(Google)": 4.2}}
,{"type": "Feature", "geometry": {"type": "Point", "coordinates": [-97.715, 30.311]}, "properties": {"Name": "Bun Belly", "Address": "5001 Airport Blvd, Austin, TX 78751, USA", "Zip": "78751", "Price_Level(Google)": 1.0, "Rating(Google)": 4.4}}
,{"type": "Feature", "geometry": {"type": "Point", "coordinates": [-97.727, 30.324]}, "properties": {"Name": "Titaya's Thai Cuisine", "Address": "5501 N Lamar Blvd # C101, Austin, TX 78751, USA", "Zip": "78751", "Price_Level(Google)": 1.0, "Rating(Google)": 4.5}}
,{"type": "Feature", "geometry": {"type": "Point", "coordinates": [-97.715, 30.313]}, "properties": {"Name": "Sala and Betty", "Address": "5201 Airport Blvd, Austin, TX 78751, USA", "Zip": "78751", "Price_Level(Google)": 2.0, "Rating(Google)": 4.5}}
,{"type": "Feature", "geometry": {"type": "Point", "coordinates": [-97.708, 30.318]}, "properties": {"Name": "Capt. Benny's Seafood", "Address": "5700 N Interstate 35 Frontage Rd, Austin, TX 78751, USA", "Zip": "78751", "Price_Level(Google)": 2.0, "Rating(Google)": 4.0}}
,{"type": "Feature", "geometry": {"type": "Point", "coordinates": [-97.715, 30.315]}, "properties": {"Name": "East Side Pies", "Address": "5312 Airport Blvd, Austin, TX 78751, USA", "Zip": "78751", "Price_Level(Google)": 2.0, "Rating(Google)": 4.5}}
,{"type": "Feature", "geometry": {"type": "Point", "coordinates": [-97.734, 30.315]}, "properties": {"Name": "Snap Kitchen", "Address": "4616 Triangle Ave, Austin, TX 78751, USA", "Zip": "78751", "Price_Level(Google)": 1.0, "Rating(Google)": 4.0}}
,{"type": "Feature", "geometry": {"type": "Point", "coordinates": [-97.715, 30.309]}, "properties": {"Name": "BULLFIGHT", "Address": "4807 Airport Blvd, Austin, TX 78751, USA", "Zip": "78751", "Price_Level(Google)": 3.0, "Rating(Google)": 4.1}}
,{"type": "Feature", "geometry": {"type": "Point", "coordinates": [-97.734, 30.316]}, "properties": {"Name": "Mandola's Italian", "Address": "4700 W Guadalupe St #12, Austin, TX 78751, USA", "Zip": "78751", "Price_Level(Google)": 2.0, "Rating(Google)": 4.3}}
,{"type": "Feature", "geometry": {"type": "Point", "coordinates": [-97.715, 30.307]}, "properties": {"Name": "Domino's Pizza", "Address": "4631 Airport Blvd Ste 130, Austin, TX 78751, USA", "Zip": "78751", "Price_Level(Google)": 1.0, "Rating(Google)": 3.6}}
,{"type": "Feature", "geometry": {"type": "Point", "coordinates": [-97.727, 30.325]}, "properties": {"Name": "El Caribe Mexican Restaurant", "Address": "5610 N Lamar Blvd, Austin, TX 78751, USA", "Zip": "78751", "Price_Level(Google)": 2.0, "Rating(Google)": 4.0}}
,{"type": "Feature", "geometry": {"type": "Point", "coordinates": [-97.721, 30.301]}, "properties": {"Name": "Jason's Deli", "Address": "1000 E 41st St #940, Austin, TX 78751, USA", "Zip": "78751", "Price_Level(Google)": 2.0, "Rating(Google)": 4.0}}
,{"type": "Feature", "geometry": {"type": "Point", "coordinates": [-97.733, 30.315]}, "properties": {"Name": "Maudie's Triangle", "Address": "4600 West Guadalupe Street, Suite B5, Austin, TX 78751, United States", "Zip": "78751", "Price_Level(Google)": 0.0, "Rating(Google)": 3.9}}
,{"type": "Feature", "geometry": {"type": "Point", "coordinates": [-97.734, 30.315]}, "properties": {"Name": "Galaxy Cafe", "Address": "4616 Triangle Ave, Austin, TX 78751, USA", "Zip": "78751", "Price_Level(Google)": 2.0, "Rating(Google)": 4.2}}
,{"type": "Feature", "geometry": {"type": "Point", "coordinates": [-97.726, 30.305]}, "properties": {"Name": "ASTI Trattoria", "Address": "408 E 43rd St C, Austin, TX 78751, USA", "Zip": "78751", "Price_Level(Google)": 2.0, "Rating(Google)": 4.1}}
,{"type": "Feature", "geometry": {"type": "Point", "coordinates": [-97.727, 30.325]}, "properties": {"Name": "KFC", "Address": "5607 N Lamar Blvd, Austin, TX 78751, USA", "Zip": "78751", "Price_Level(Google)": 1.0, "Rating(Google)": 3.3}}
,{"type": "Feature", "geometry": {"type": "Point", "coordinates": [-97.715, 30.307]}, "properties": {"Name": "The Omelettry", "Address": "4631 Airport Blvd #131a, Austin, TX 78751, USA", "Zip": "78751", "Price_Level(Google)": 2.0, "Rating(Google)": 4.2}}
,{"type": "Feature", "geometry": {"type": "Point", "coordinates": [-97.715, 30.304]}, "properties": {"Name": "In-N-Out Burger", "Address": "4515 Airport Blvd, Austin, TX 78751, USA", "Zip": "78751", "Price_Level(Google)": 1.0, "Rating(Google)": 4.2}}
,{"type": "Feature", "geometry": {"type": "Point", "coordinates": [-97.727, 30.325]}, "properties": {"Name": "Dan's Hamburgers", "Address": "5602 N Lamar Blvd, Austin, TX 78751, USA", "Zip": "78751", "Price_Level(Google)": 1.0, "Rating(Google)": 4.5}}
,{"type": "Feature", "geometry": {"type": "Point", "coordinates": [-97.725, 30.328]}, "properties": {"Name": "P. Terry's Burger Stand", "Address": "5900 N Lamar Blvd, Austin, TX 78751, USA", "Zip": "78751", "Price_Level(Google)": 0.0, "Rating(Google)": 4.4}}
,{"type": "Feature", "geometry": {"type": "Point", "coordinates": [-97.72, 30.299]}, "properties": {"Name": "Jack In The Box", "Address": "1000 E 41st St Unit K, Austin, TX 78751, USA", "Zip": "78751", "Price_Level(Google)": 1.0, "Rating(Google)": 2.8}}
,{"type": "Feature", "geometry": {"type": "Point", "coordinates": [-97.727, 30.304]}, "properties": {"Name": "Hyde Park Bar & Grill", "Address": "4206 Duval St, Austin, TX 78751, USA", "Zip": "78751", "Price_Level(Google)": 0.0, "Rating(Google)": 4.2}}
,{"type": "Feature", "geometry": {"type": "Point", "coordinates": [-97.715, 30.307]}, "properties": {"Name": "Soup Peddler Real Food & Juice Bar", "Address": "4631 Airport Blvd #130, Austin, TX 78751, USA", "Zip": "78751", "Price_Level(Google)": 1.0, "Rating(Google)": 4.7}}
,{"type": "Feature", "geometry": {"type": "Point", "coordinates": [-97.726, 30.304]}, "properties": {"Name": "Mother's Cafe", "Address": "4215 Duval St, Austin, TX 78751, USA", "Zip": "78751", "Price_Level(Google)": 2.0, "Rating(Google)": 4.4}}
,{"type": "Feature", "geometry": {"type": "Point", "coordinates": [-97.714, 30.314]}, "properties": {"Name": "Kom\u00e9", "Address": "5301 Airport Blvd #100, Austin, TX 78751, USA", "Zip": "78751", "Price_Level(Google)": 3.0, "Rating(Google)": 4.6}}
,{"type": "Feature", "geometry": {"type": "Point", "coordinates": [-97.712, 30.318]}, "properties": {"Name": "Quality Seafood Market", "Address": "5621 Airport Blvd, Austin, TX 78751, USA", "Zip": "78751", "Price_Level(Google)": 2.0, "Rating(Google)": 4.3}}
,{"type": "Feature", "geometry": {"type": "Point", "coordinates": [-97.733, 30.316]}, "properties": {"Name": "MezzeMe Mediterranean Kitchen", "Address": "4700 W Guadalupe St #9, Austin, TX 78751, USA", "Zip": "78751", "Price_Level(Google)": 1.0, "Rating(Google)": 4.7}}
,{"type": "Feature", "geometry": {"type": "Point", "coordinates": [-97.726, 30.305]}, "properties": {"Name": "Julio's Cafe", "Address": "4230 Duval St, Austin, TX 78751, USA", "Zip": "78751", "Price_Level(Google)": 2.0, "Rating(Google)": 4.3}}
,{"type": "Feature", "geometry": {"type": "Point", "coordinates": [-97.721, 30.3]}, "properties": {"Name": "Freebirds World Burrito", "Address": "1000 E 41st St Ste. 260, Austin, TX 78751, USA", "Zip": "78751", "Price_Level(Google)": 2.0, "Rating(Google)": 4.1}}
,{"type": "Feature", "geometry": {"type": "Point", "coordinates": [-97.73, 30.321]}, "properties": {"Name": "Taco Cabana", "Address": "5242 N Lamar Blvd, Austin, TX 78751, USA", "Zip": "78751", "Price_Level(Google)": 1.0, "Rating(Google)": 3.7}}
,{"type": "Feature", "geometry": {"type": "Point", "coordinates": [-97.734, 30.315]}, "properties": {"Name": "Hopdoddy Burger Bar", "Address": "4615 N Lamar Blvd #307, Austin, TX 78751, USA", "Zip": "78751", "Price_Level(Google)": 2.0, "Rating(Google)": 4.5}}
,{"type": "Feature", "geometry": {"type": "Point", "coordinates": [-97.721, 30.317]}, "properties": {"Name": "Van\u2019s Banh Mi", "Address": "201 E 53rd St, Austin, TX 78751, USA", "Zip": "78751", "Price_Level(Google)": 0.0, "Rating(Google)": 4.9}}
,{"type": "Feature", "geometry": {"type": "Point", "coordinates": [-97.72, 30.317]}, "properties": {"Name": "Foreign & Domestic", "Address": "306 E 53rd St, Austin, TX 78751, USA", "Zip": "78751", "Price_Level(Google)": 2.0, "Rating(Google)": 4.1}}
,{"type": "Feature", "geometry": {"type": "Point", "coordinates": [-97.695, 30.367]}, "properties": {"Name": "Thomas Buffet", "Address": "9710 N Lamar Blvd, Austin, TX 78753, USA", "Zip": "78753", "Price_Level(Google)": 2.0, "Rating(Google)": 3.6}}
,{"type": "Feature", "geometry": {"type": "Point", "coordinates": [-97.741, 30.334]}, "properties": {"Name": "Sap's Fine Thai Cuisine", "Address": "5800 Burnet Rd, Austin, TX 78756, USA", "Zip": "78756", "Price_Level(Google)": 2.0, "Rating(Google)": 4.4}}
,{"type": "Feature", "geometry": {"type": "Point", "coordinates": [-97.743, 30.306]}, "properties": {"Name": "Snooze an A.M. Eatery", "Address": "3800 N Lamar Blvd #120, Austin, TX 78756, USA", "Zip": "78756", "Price_Level(Google)": 2.0, "Rating(Google)": 4.5}}
,{"type": "Feature", "geometry": {"type": "Point", "coordinates": [-97.738, 30.313]}, "properties": {"Name": "Chili's Grill & Bar", "Address": "4420 N Lamar Blvd, Austin, TX 78756, USA", "Zip": "78756", "Price_Level(Google)": 1.0, "Rating(Google)": 3.9}}
,{"type": "Feature", "geometry": {"type": "Point", "coordinates": [-97.739, 30.319]}, "properties": {"Name": "Pinthouse Pizza", "Address": "4729 Burnet Rd, Austin, TX 78756, USA", "Zip": "78756", "Price_Level(Google)": 0.0, "Rating(Google)": 4.7}}
,{"type": "Feature", "geometry": {"type": "Point", "coordinates": [-97.74, 30.329]}, "properties": {"Name": "Lucy's Fried Chicken", "Address": "5408 Burnet Rd, Austin, TX 78756, USA", "Zip": "78756", "Price_Level(Google)": 1.0, "Rating(Google)": 4.2}}
,{"type": "Feature", "geometry": {"type": "Point", "coordinates": [-97.739, 30.327]}, "properties": {"Name": "Papa John's Pizza", "Address": "5343 Burnet Rd, Austin, TX 78756, USA", "Zip": "78756", "Price_Level(Google)": 2.0, "Rating(Google)": 3.8}}
,{"type": "Feature", "geometry": {"type": "Point", "coordinates": [-97.739, 30.313]}, "properties": {"Name": "The Steeping Room", "Address": "4400 N Lamar Blvd #102, Austin, TX 78756, USA", "Zip": "78756", "Price_Level(Google)": 1.0, "Rating(Google)": 4.6}}
,{"type": "Feature", "geometry": {"type": "Point", "coordinates": [-97.742, 30.308]}, "properties": {"Name": "Taco Shack", "Address": "4002 N Lamar Blvd, Austin, TX 78756, USA", "Zip": "78756", "Price_Level(Google)": 1.0, "Rating(Google)": 3.8}}
,{"type": "Feature", "geometry": {"type": "Point", "coordinates": [-97.743, 30.325]}, "properties": {"Name": "Poke-Poke", "Address": "2320 Hancock Dr, Austin, TX 78756, USA", "Zip": "78756", "Price_Level(Google)": 1.0, "Rating(Google)": 4.6}}
,{"type": "Feature", "geometry": {"type": "Point", "coordinates": [-97.742, 30.315]}, "properties": {"Name": "Taco Shack", "Address": "4412 Medical Pkwy, Austin, TX 78756, USA", "Zip": "78756", "Price_Level(Google)": 1.0, "Rating(Google)": 3.8}}
,{"type": "Feature", "geometry": {"type": "Point", "coordinates": [-97.74, 30.311]}, "properties": {"Name": "Tacodeli", "Address": "4200 N Lamar Blvd, Austin, TX 78756, USA", "Zip": "78756", "Price_Level(Google)": 1.0, "Rating(Google)": 4.6}}
,{"type": "Feature", "geometry": {"type": "Point", "coordinates": [-97.74, 30.325]}, "properties": {"Name": "Chi'Lantro", "Address": "5222 Burnet Rd, Austin, TX 78756, USA", "Zip": "78756", "Price_Level(Google)": 1.0, "Rating(Google)": 4.4}}
,{"type": "Feature", "geometry": {"type": "Point", "coordinates": [-97.739, 30.322]}, "properties": {"Name": "Citizen Eatery", "Address": "5011 Burnet Rd, Austin, TX 78756, USA", "Zip": "78756", "Price_Level(Google)": 1.0, "Rating(Google)": 4.4}}
,{"type": "Feature", "geometry": {"type": "Point", "coordinates": [-97.74, 30.331]}, "properties": {"Name": "The Peached Tortilla", "Address": "5520 Burnet Rd #100, Austin, TX 78756, USA", "Zip": "78756", "Price_Level(Google)": 2.0, "Rating(Google)": 4.5}}
,{"type": "Feature", "geometry": {"type": "Point", "coordinates": [-97.74, 30.318]}, "properties": {"Name": "Maru Japanese Restaurant", "Address": "4636 Burnet Rd, Austin, TX 78756, USA", "Zip": "78756", "Price_Level(Google)": 2.0, "Rating(Google)": 4.5}}
,{"type": "Feature", "geometry": {"type": "Point", "coordinates": [-97.74, 30.318]}, "properties": {"Name": "Gusto", "Address": "4800 Burnet Rd, Austin, TX 78756, USA", "Zip": "78756", "Price_Level(Google)": 2.0, "Rating(Google)": 4.2}}
,{"type": "Feature", "geometry": {"type": "Point", "coordinates": [-97.741, 30.316]}, "properties": {"Name": "La Cocina de Consuelo", "Address": "4516 Burnet Rd, Austin, TX 78756, USA", "Zip": "78756", "Price_Level(Google)": 2.0, "Rating(Google)": 4.4}}
,{"type": "Feature", "geometry": {"type": "Point", "coordinates": [-97.74, 30.325]}, "properties": {"Name": "Sarah's Mediterranean", "Address": "5222 Burnet Rd #500, Austin, TX 78756, USA", "Zip": "78756", "Price_Level(Google)": 1.0, "Rating(Google)": 4.5}}
,{"type": "Feature", "geometry": {"type": "Point", "coordinates": [-97.74, 30.311]}, "properties": {"Name": "Uchiko", "Address": "4200 N Lamar Blvd, Austin, TX 78756, USA", "Zip": "78756", "Price_Level(Google)": 3.0, "Rating(Google)": 4.7}}
,{"type": "Feature", "geometry": {"type": "Point", "coordinates": [-97.74, 30.321]}, "properties": {"Name": "The Big Kahuna", "Address": "5000 Burnet Rd, Austin, TX 78756, USA", "Zip": "78756", "Price_Level(Google)": 1.0, "Rating(Google)": 4.8}}
,{"type": "Feature", "geometry": {"type": "Point", "coordinates": [-97.74, 30.319]}, "properties": {"Name": "Blue Star", "Address": "4800 Burnet Rd C300, Austin, TX 78756, USA", "Zip": "78756", "Price_Level(Google)": 2.0, "Rating(Google)": 4.0}}
,{"type": "Feature", "geometry": {"type": "Point", "coordinates": [-97.741, 30.322]}, "properties": {"Name": "La Mancha", "Address": "2203 Hancock Dr, Austin, TX 78756, USA", "Zip": "78756", "Price_Level(Google)": 0.0, "Rating(Google)": 4.2}}
,{"type": "Feature", "geometry": {"type": "Point", "coordinates": [-97.744, 30.325]}, "properties": {"Name": "epicerie", "Address": "2307 Hancock Dr, Austin, TX 78756, USA", "Zip": "78756", "Price_Level(Google)": 2.0, "Rating(Google)": 4.4}}
,{"type": "Feature", "geometry": {"type": "Point", "coordinates": [-97.743, 30.326]}, "properties": {"Name": "Fonda San Miguel", "Address": "2330 W N Loop Blvd, Austin, TX 78756, USA", "Zip": "78756", "Price_Level(Google)": 3.0, "Rating(Google)": 4.4}}
,{"type": "Feature", "geometry": {"type": "Point", "coordinates": [-97.739, 30.313]}, "properties": {"Name": "Get Sum", "Address": "4400 N Lamar Blvd, Austin, TX 78756, USA", "Zip": "78756", "Price_Level(Google)": 0.0, "Rating(Google)": 3.7}}
,{"type": "Feature", "geometry": {"type": "Point", "coordinates": [-97.739, 30.313]}, "properties": {"Name": "Panda Express", "Address": "4400 N Lamar Blvd, Austin, TX 78756, USA", "Zip": "78756", "Price_Level(Google)": 1.0, "Rating(Google)": 2.5}}
,{"type": "Feature", "geometry": {"type": "Point", "coordinates": [-97.735, 30.349]}, "properties": {"Name": "Pizza Land", "Address": "7329 Burnet Rd, Austin, TX 78757, USA", "Zip": "78757", "Price_Level(Google)": 2.0, "Rating(Google)": 2.0}}
,{"type": "Feature", "geometry": {"type": "Point", "coordinates": [-97.715, 30.348]}, "properties": {"Name": "Misung 888", "Address": "911 W Anderson Ln, Austin, TX 78757, USA", "Zip": "78757", "Price_Level(Google)": 0.0, "Rating(Google)": 3.9}}
,{"type": "Feature", "geometry": {"type": "Point", "coordinates": [-97.735, 30.359]}, "properties": {"Name": "Shabu", "Address": "2700 W Anderson Ln, Austin, TX 78757, USA", "Zip": "78757", "Price_Level(Google)": 0.0, "Rating(Google)": 4.3}}
,{"type": "Feature", "geometry": {"type": "Point", "coordinates": [-97.727, 30.4]}, "properties": {"Name": "Xian Noodles", "Address": "3401 Esperanza Crossing #106, Austin, TX 78758, USA", "Zip": "78758", "Price_Level(Google)": 0.0, "Rating(Google)": 4.7}}
,{"type": "Feature", "geometry": {"type": "Point", "coordinates": [-97.749, 30.395]}, "properties": {"Name": "Fire Bowl Cafe", "Address": "9828 Great Hills Trail #100, Austin, TX 78759, USA", "Zip": "78759", "Price_Level(Google)": 2.0, "Rating(Google)": 3.9}}
,{"type": "Feature", "geometry": {"type": "Point", "coordinates": [-97.733, 30.389]}, "properties": {"Name": "Masala Wok", "Address": "10515 N. Mopac Espressway A-155, Austin, TX 78759, USA", "Zip": "78759", "Price_Level(Google)": 2.0, "Rating(Google)": 4.0}}
,{"type": "Feature", "geometry": {"type": "Point", "coordinates": [-97.742, 30.272]}, "properties": {"Name": "Quiznos", "Address": "922 Congress Ave, Austin, TX 78701, USA", "Zip": "78701", "Price_Level(Google)": 1.0, "Rating(Google)": 3.7}}
]}