{"type": "FeatureCollection", "features": [
{"type": "Feature", "geometry": {"type": "Point", "coordinates": [-97.755, 30.25]}, "properties": {"Name": "Elizabeth Street Cafe", "Address": "1501 S 1st St, Austin, TX 78704, USA", "Zip": "78704", "Price_Level(Google)": 3.0, "Rating(Google)": 4.3}}
,{"type": "Feature", "geometry": {"type": "Point", "coordinates": [-97.754, 30.252]}, "properties": {"Name": "Saperlipopette! (French Crepes)", "Address": "1207 S 1st St, Austin, TX 78704, USA", "Zip": "78704", "Price_Level(Google)": 0.0, "Rating(Google)": 5.0}}
,{"type": "Feature", "geometry": {"type": "Point", "coordinates": [-97.739, 30.26]}, "properties": {"Name": "L'estelle House", "Address": "88 1/2 Rainey St, Austin, TX 78701, USA", "Zip": "78701", "Price_Level(Google)": 0.0, "Rating(Google)": 4.5}}
,{"type": "Feature", "geometry": {"type": "Point", "coordinates": [-97.742, 30.264]}, "properties": {"Name": "Le Caf\u00e9 Cr\u00eape", "Address": "200 San Jacinto Blvd A, Austin, TX 78701, USA", "Zip": "78701", "Price_Level(Google)": 1.0, "Rating(Google)": 4.3}}
,{"type": "Feature", "geometry": {"type": "Point", "coordinates": [-97.749, 30.266]}, "properties": {"Name": "Le Politique", "Address": "110 San Antonio St, Austin, TX 78701, USA", "Zip": "78701", "Price_Level(Google)": 3.0, "Rating(Google)": 4.3}}
,{"type": "Feature", "geometry": {"type": "Point", "coordinates": [-97.739, 30.266]}, "properties": {"Name": "Chez Nous", "Address": "510 Neches St, Austin, TX 78701, USA", "Zip": "78701", "Price_Level(Google)": 2.0, "Rating(Google)": 4.4}}
,{"type": "Feature", "geometry": {"type": "Point", "coordinates": [-97.745, 30.267]}, "properties": {"Name": "P\u00e9ch\u00e9", "Address": "208 W 4th St, Austin, TX 78701, USA", "Zip": "78701", "Price_Level(Google)": 0.0, "Rating(Google)": 4.5}}
,{"type": "Feature", "geometry": {"type": "Point", "coordinates": [-97.729, 30.269]}, "properties": {"Name": "Blue Dahlia Bistro", "Address": "1115 E 11th St, Austin, TX 78702, USA", "Zip": "78702", "Price_Level(Google)": 2.0, "Rating(Google)": 4.6}}
,{"type": "Feature", "geometry": {"type": "Point", "coordinates": [-97.701, 30.253]}, "properties": {"Name": "Justine's", "Address": "4710 E 5th St, Austin, TX 78702, USA", "Zip": "78702", "Price_Level(Google)": 2.0, "Rating(Google)": 4.5}}
,{"type": "Feature", "geometry": {"type": "Point", "coordinates": [-97.808, 30.279]}, "properties": {"Name": "Blue Dahlia Bistro", "Address": "3663 Bee Caves Rd, West Lake Hills, TX 78746, USA", "Zip": "78746", "Price_Level(Google)": 0.0, "Rating(Google)": 4.5}}
,{"type": "Feature", "geometry": {"type": "Point", "coordinates": [-97.741, 30.298]}, "properties": {"Name": "Hopfields", "Address": "3110 Guadalupe St, Austin, TX 78705, USA", "Zip": "78705", "Price_Level(Google)": 1.0, "Rating(Google)": 4.5}}
,{"type": "Feature", "geometry": {"type": "Point", "coordinates": [-97.74, 30.328]}, "properties": {"Name": "Bonhomie", "Address": "5350 Burnet Rd, Austin, TX 78756, USA", "Zip": "78756", "Price_Level(Google)": 2.0, "Rating(Google)": 4.4}}
,{"type": "Feature", "geometry": {"type": "Point", "coordinates": [-97.747, 30.396]}, "properties": {"Name": "la Madeleine French Bakery & Caf\u00e9", "Address": "9828 Great Hills Trail #650, Austin, TX 78759, USA", "Zip": "78759", "Price_Level(Google)": 2.0, "Rating(Google)": 4.1}}
,{"type": "Feature", "geometry": {"type": "Point", "coordinates": [-97.721, 30.403]}, "properties": {"Name": "Toulouse Domain", "Address": "3120 Palm Way #150, Austin, TX 78758, USA", "Zip": "78758", "Price_Level(Google)": 2.0, "Rating(Google)": 4.5}}
,{"type": "Feature", "geometry": {"type": "Point", "coordinates": [-97.676, 30.412]}, "properties": {"Name": "French Quarter Grille", "Address": "13000 I-35 #600, Austin, TX 78753, USA", "Zip": "78753", "Price_Level(Google)": 2.0, "Rating(Google)": 4.6}}
,{"type": "Feature", "geometry": {"type": "Point", "coordinates": [-97.773, 30.279]}, "properties": {"Name": "Fabi + Rosi", "Address": "509 Hearn St, Austin, TX 78703, USA", "Zip": "78703", "Price_Level(Google)": 2.0, "Rating(Google)": 4.7}}
,{"type": "Feature", "geometry": {"type": "Point", "coordinates": [-97.777, 30.247]}, "properties": {"Name": "French Tex Cuisine", "Address": "2323 S Lamar Blvd, Austin, TX 78704, USA", "Zip": "78704", "Price_Level(Google)": 0.0, "Rating(Google)": 3.8}}
,{"type": "Feature", "geometry": {"type": "Point", "coordinates": [-97.734, 30.386]}, "properties": {"Name": "Mimi's Cafe", "Address": "10515 N. Mopac Expy. NB, Austin, TX 78758, United States", "Zip": "78758", "Price_Level(Google)": 2.0, "Rating(Google)": 3.9}}
,{"type": "Feature", "geometry": {"type": "Point", "coordinates": [-97.938, 30.307]}, "properties": {"Name": "Mimi's Cafe", "Address": "12613 Galleria Pkwy, Bee Cave, TX 78738, USA", "Zip": "78738", "Price_Level(Google)": 2.0, "Rating(Google)": 3.6}}
,{"type": "Feature", "geometry": {"type": "Point", "coordinates": [-97.744, 30.296]}, "properties": {"Name": "Texas French Bread", "Address": "2900 Rio Grande St, Austin, TX 78705, USA", "Zip": "78705", "Price_Level(Google)": 2.0, "Rating(Google)": 4.3}}
,{"type": "Feature", "geometry": {"type": "Point", "coordinates": [-97.74, 30.267]}, "properties": {"Name": "Old Pecan Street Cafe", "Address": "504 Trinity St, Austin, TX 78701, USA", "Zip": "78701", "Price_Level(Google)": 0.0, "Rating(Google)": 4.2}}
,{"type": "Feature", "geometry": {"type": "Point", "coordinates": [-97.744, 30.265]}, "properties": {"Name": "French Food trailer", "Address": "101-153 W 3rd St, Austin, TX 78701, USA", "Zip": "78701", "Price_Level(Google)": 0.0, "Rating(Google)": 0.0}}
,{"type": "Feature", "geometry": {"type": "Point", "coordinates": [-97.759, 30.28]}, "properties": {"Name": "Jeffrey's", "Address": "1204 W Lynn St, Austin, TX 78703, USA", "Zip": "78703", "Price_Level(Google)": 3.0, "Rating(Google)": 4.3}}
,{"type": "Feature", "geometry": {"type": "Point", "coordinates": [-97.752, 30.276]}, "properties": {"Name": "Wink", "Address": "1014 N Lamar Blvd, Austin, TX 78703, USA", "Zip": "78703", "Price_Level(Google)": 3.0, "Rating(Google)": 4.3}}
,{"type": "Feature", "geometry": {"type": "Point", "coordinates": [-97.772, 30.278]}, "properties": {"Name": "Magnolia Cafe", "Address": "2304 Lake Austin Blvd, Austin, TX 78703, USA", "Zip": "78703", "Price_Level(Google)": 2.0, "Rating(Google)": 4.3}}
,{"type": "Feature", "geometry": {"type": "Point", "coordinates": [-97.776, 30.283]}, "properties": {"Name": "Maudie's Cafe", "Address": "2608 W 7th St, Austin, TX 78703, USA", "Zip": "78703", "Price_Level(Google)": 2.0, "Rating(Google)": 4.0}}
,{"type": "Feature", "geometry": {"type": "Point", "coordinates": [-97.941, 29.883]}, "properties": {"Name": "Blue Dahlia Bistro", "Address": "107 E Hopkins St, San Marcos, TX 78666, USA", "Zip": "78666", "Price_Level(Google)": 0.0, "Rating(Google)": 4.6}}
,{"type": "Feature", "geometry": {"type": "Point", "coordinates": [-97.76, 30.279]}, "properties": {"Name": "Galaxy Cafe", "Address": "1000 W Lynn St, Austin, TX 78703, USA", "Zip": "78703", "Price_Level(Google)": 1.0, "Rating(Google)": 4.3}}
,{"type": "Feature", "geometry": {"type": "Point", "coordinates": [-97.759, 30.281]}, "properties": {"Name": "Cipollina", "Address": "1213 W Lynn St, Austin, TX 78703, USA", "Zip": "78703", "Price_Level(Google)": 2.0, "Rating(Google)": 4.2}}
,{"type": "Feature", "geometry": {"type": "Point", "coordinates": [-97.757, 30.273]}, "properties": {"Name": "Caf\u00e9 Josie", "Address": "1200 W 6th St, Austin, TX 78703, USA", "Zip": "78703", "Price_Level(Google)": 3.0, "Rating(Google)": 4.4}}
,{"type": "Feature", "geometry": {"type": "Point", "coordinates": [-97.75, 30.306]}, "properties": {"Name": "Tiny Boxwoods Austin", "Address": "1503 W 35th St, Austin, TX 78703, USA", "Zip": "78703", "Price_Level(Google)": 2.0, "Rating(Google)": 4.4}}
,{"type": "Feature", "geometry": {"type": "Point", "coordinates": [-97.754, 30.272]}, "properties": {"Name": "24 Diner", "Address": "600 N Lamar Blvd, Austin, TX 78703, USA", "Zip": "78703", "Price_Level(Google)": 2.0, "Rating(Google)": 4.3}}
,{"type": "Feature", "geometry": {"type": "Point", "coordinates": [-97.764, 30.274]}, "properties": {"Name": "Lucky's Puccias", "Address": "1611 W 5th St #175, Austin, TX 78703, USA", "Zip": "78703", "Price_Level(Google)": 1.0, "Rating(Google)": 4.7}}
,{"type": "Feature", "geometry": {"type": "Point", "coordinates": [-97.751, 30.307]}, "properties": {"Name": "Olive & June", "Address": "3411 Glenview Ave, Austin, TX 78703, USA", "Zip": "78703", "Price_Level(Google)": 0.0, "Rating(Google)": 4.3}}
,{"type": "Feature", "geometry": {"type": "Point", "coordinates": [-97.756, 30.273]}, "properties": {"Name": "Z'Tejas", "Address": "1110 W 6th St, Austin, TX 78703, USA", "Zip": "78703", "Price_Level(Google)": 0.0, "Rating(Google)": 4.0}}
,{"type": "Feature", "geometry": {"type": "Point", "coordinates": [-97.754, 30.273]}, "properties": {"Name": "Counter Cafe", "Address": "626 N Lamar Blvd, Austin, TX 78703, USA", "Zip": "78703", "Price_Level(Google)": 2.0, "Rating(Google)": 4.4}}
,{"type": "Feature", "geometry": {"type": "Point", "coordinates": [-97.765, 30.275]}, "properties": {"Name": "El Arroyo", "Address": "1624 W 5th St, Austin, TX 78703, USA", "Zip": "78703", "Price_Level(Google)": 2.0, "Rating(Google)": 3.8}}
,{"type": "Feature", "geometry": {"type": "Point", "coordinates": [-97.76, 30.274]}, "properties": {"Name": "Nightcap", "Address": "1401 W 6th St, Austin, TX 78703, USA", "Zip": "78703", "Price_Level(Google)": 3.0, "Rating(Google)": 4.4}}
,{"type": "Feature", "geometry": {"type": "Point", "coordinates": [-97.759, 30.28]}, "properties": {"Name": "Nau's Enfield Drug", "Address": "1115 W Lynn St, Austin, TX 78703, USA", "Zip": "78703", "Price_Level(Google)": 1.0, "Rating(Google)": 4.2}}
,{"type": "Feature", "geometry": {"type": "Point", "coordinates": [-97.761, 30.273]}, "properties": {"Name": "TNT Tacos and Tequila", "Address": "507 Pressler St, Austin, TX 78703, USA", "Zip": "78703", "Price_Level(Google)": 0.0, "Rating(Google)": 4.1}}
,{"type": "Feature", "geometry": {"type": "Point", "coordinates": [-97.752, 30.274]}, "properties": {"Name": "Shoal Creek Saloon", "Address": "909 N Lamar Blvd, Austin, TX 78703, USA", "Zip": "78703", "Price_Level(Google)": 2.0, "Rating(Google)": 4.2}}
,{"type": "Feature", "geometry": {"type": "Point", "coordinates": [-97.768, 30.297]}, "properties": {"Name": "The Beer Plant", "Address": "3110 Windsor Rd, Austin, TX 78703, USA", "Zip": "78703", "Price_Level(Google)": 2.0, "Rating(Google)": 4.6}}
,{"type": "Feature", "geometry": {"type": "Point", "coordinates": [-97.751, 30.27]}, "properties": {"Name": "Hut's Hamburgers", "Address": "807 W 6th St, Austin, TX 78703, USA", "Zip": "78703", "Price_Level(Google)": 1.0, "Rating(Google)": 4.2}}
,{"type": "Feature", "geometry": {"type": "Point", "coordinates": [-97.784, 30.295]}, "properties": {"Name": "Hula Hut", "Address": "3825 Lake Austin Blvd, Austin, TX 78703, USA", "Zip": "78703", "Price_Level(Google)": 2.0, "Rating(Google)": 4.1}}
,{"type": "Feature", "geometry": {"type": "Point", "coordinates": [-97.753, 30.27]}, "properties": {"Name": "Austin's Habibi", "Address": "817 W 5th St, Austin, TX 78703, USA", "Zip": "78703", "Price_Level(Google)": 1.0, "Rating(Google)": 4.0}}
,{"type": "Feature", "geometry": {"type": "Point", "coordinates": [-97.773, 30.278]}, "properties": {"Name": "68 Degrees Kitchen", "Address": "2401 Lake Austin Blvd, Austin, TX 78703, USA", "Zip": "78703", "Price_Level(Google)": 2.0, "Rating(Google)": 4.2}}
,{"type": "Feature", "geometry": {"type": "Point", "coordinates": [-97.753, 30.27]}, "properties": {"Name": "Super Burrito", "Address": "817 W 5th St, Austin, TX 78703, USA", "Zip": "78703", "Price_Level(Google)": 1.0, "Rating(Google)": 3.8}}
,{"type": "Feature", "geometry": {"type": "Point", "coordinates": [-97.751, 30.248]}, "properties": {"Name": "South Congress Cafe", "Address": "1600 S Congress Ave, Austin, TX 78704, USA", "Zip": "78704", "Price_Level(Google)": 0.0, "Rating(Google)": 4.4}}
,{"type": "Feature", "geometry": {"type": "Point", "coordinates": [-97.763, 30.256]}, "properties": {"Name": "VOX Table", "Address": "1100 S Lamar Blvd #2140, Austin, TX 78704, USA", "Zip": "78704", "Price_Level(Google)": 3.0, "Rating(Google)": 4.5}}
,{"type": "Feature", "geometry": {"type": "Point", "coordinates": [-97.819, 30.23]}, "properties": {"Name": "la Madeleine French Bakery & Caf\u00e9", "Address": "5493 Brodie Ln, Austin, TX 78745, USA", "Zip": "78745", "Price_Level(Google)": 0.0, "Rating(Google)": 4.2}}
,{"type": "Feature", "geometry": {"type": "Point", "coordinates": [-97.709, 30.306]}, "properties": {"Name": "la Madeleine French Bakery & Caf\u00e9", "Address": "1201 Barbara Jordan Blvd., Building 11, Austin, TX 78723, United States", "Zip": "78723", "Price_Level(Google)": 0.0, "Rating(Google)": 4.2}}
,{"type": "Feature", "geometry": {"type": "Point", "coordinates": [-97.744, 30.325]}, "properties": {"Name": "epicerie", "Address": "2307 Hancock Dr, Austin, TX 78756, USA", "Zip": "78756", "Price_Level(Google)": 2.0, "Rating(Google)": 4.4}}
,{"type": "Feature", "geometry": {"type": "Point", "coordinates": [-97.824, 30.198]}, "properties": {"Name": "French Tex Cuisine", "Address": "7913 Finch Trail, Austin, TX 78745, USA", "Zip": "78745", "Price_Level(Google)": 0.0, "Rating(Google)": 0.0}}
,{"type": "Feature", "geometry": {"type": "Point", "coordinates": [-97.783, 30.242]}, "properties": {"Name": "Kerbey Lane Cafe", "Address": "3003 S Lamar Blvd, Austin, TX 78704, USA", "Zip": "78704", "Price_Level(Google)": 1.0, "Rating(Google)": 4.3}}
,{"type": "Feature", "geometry": {"type": "Point", "coordinates": [-97.759, 30.262]}, "properties": {"Name": "P. Terry's Burger Stand", "Address": "404 S Lamar Blvd, Austin, TX 78704, USA", "Zip": "78704", "Price_Level(Google)": 1.0, "Rating(Google)": 4.3}}
,{"type": "Feature", "geometry": {"type": "Point", "coordinates": [-97.804, 30.476]}, "properties": {"Name": "la Madeleine French Bakery & Caf\u00e9", "Address": "14028 US-183 #230, Austin, TX 78717, USA", "Zip": "78717", "Price_Level(Google)": 0.0, "Rating(Google)": 4.1}}
,{"type": "Feature", "geometry": {"type": "Point", "coordinates": [-97.727, 30.304]}, "properties": {"Name": "Hyde Park Bar & Grill", "Address": "4206 Duval St, Austin, TX 78751, USA", "Zip": "78751", "Price_Level(Google)": 0.0, "Rating(Google)": 4.2}}
,{"type": "Feature", "geometry": {"type": "Point", "coordinates": [-97.76, 30.262]}, "properties": {"Name": "Juliet Italian Kitchen", "Address": "1500 Barton Springs Rd, Austin, TX 78704, USA", "Zip": "78704", "Price_Level(Google)": 3.0, "Rating(Google)": 4.3}}
,{"type": "Feature", "geometry": {"type": "Point", "coordinates": [-97.756, 30.247]}, "properties": {"Name": "LENOIR", "Address": "1807 S 1st St, Austin, TX 78704, USA", "Zip": "78704", "Price_Level(Google)": 4.0, "Rating(Google)": 4.5}}
,{"type": "Feature", "geometry": {"type": "Point", "coordinates": [-97.742, 30.268]}, "properties": {"Name": "P. Terry's Burger Stand", "Address": "515 Congress Ave #130, Austin, TX 78701, USA", "Zip": "78701", "Price_Level(Google)": 0.0, "Rating(Google)": 4.4}}
,{"type": "Feature", "geometry": {"type": "Point", "coordinates": [-97.736, 30.232]}, "properties": {"Name": "P. Terry's Burger Stand", "Address": "1800 E Oltorf St, Austin, TX 78741, USA", "Zip": "78741", "Price_Level(Google)": 0.0, "Rating(Google)": 4.4}}
,{"type": "Feature", "geometry": {"type": "Point", "coordinates": [-97.758, 30.337]}, "properties": {"Name": "Chez Zee American Bistro", "Address": "5406 Balcones Dr, Austin, TX 78731, USA", "Zip": "78731", "Price_Level(Google)": 3.0, "Rating(Google)": 4.2}}
,{"type": "Feature", "geometry": {"type": "Point", "coordinates": [-97.769, 30.248]}, "properties": {"Name": "Lucy's on the Fly", "Address": "2043 S Lamar Blvd, Austin, TX 78704, USA", "Zip": "78704", "Price_Level(Google)": 1.0, "Rating(Google)": 4.1}}
,{"type": "Feature", "geometry": {"type": "Point", "coordinates": [-97.753, 30.241]}, "properties": {"Name": "Lucy's Fried Chicken", "Address": "2218 College Ave, Austin, TX 78704, USA", "Zip": "78704", "Price_Level(Google)": 2.0, "Rating(Google)": 4.3}}
,{"type": "Feature", "geometry": {"type": "Point", "coordinates": [-97.788, 30.231]}, "properties": {"Name": "Dan's Hamburgers", "Address": "4308 Manchaca Rd, Austin, TX 78704, USA", "Zip": "78704", "Price_Level(Google)": 1.0, "Rating(Google)": 4.6}}
,{"type": "Feature", "geometry": {"type": "Point", "coordinates": [-97.752, 30.244]}, "properties": {"Name": "Magnolia Cafe", "Address": "1920 S Congress Ave, Austin, TX 78704, USA", "Zip": "78704", "Price_Level(Google)": 1.0, "Rating(Google)": 4.3}}
,{"type": "Feature", "geometry": {"type": "Point", "coordinates": [-97.751, 30.246]}, "properties": {"Name": "Auguste & Marcel Wine Bar", "Address": "1716 S Congress Ave, Austin, TX 78704, USA", "Zip": "78704", "Price_Level(Google)": 1.0, "Rating(Google)": 4.3}}
,{"type": "Feature", "geometry": {"type": "Point", "coordinates": [-97.745, 30.302]}, "properties": {"Name": "P. Terry's Burger Stand", "Address": "3303 N Lamar Blvd, Austin, TX 78705, USA", "Zip": "78705", "Price_Level(Google)": 1.0, "Rating(Google)": 4.4}}
,{"type": "Feature", "geometry": {"type": "Point", "coordinates": [-97.75, 30.248]}, "properties": {"Name": "Central Standard", "Address": "1603 S Congress Ave, Austin, TX 78704, USA", "Zip": "78704", "Price_Level(Google)": 3.0, "Rating(Google)": 4.3}}
,{"type": "Feature", "geometry": {"type": "Point", "coordinates": [-97.76, 30.258]}, "properties": {"Name": "Uchi", "Address": "801 South Lamar\ufffc \ufffcBoulevard, Austin, TX 78704, USA", "Zip": "78704", "Price_Level(Google)": 3.0, "Rating(Google)": 4.6}}
,{"type": "Feature", "geometry": {"type": "Point", "coordinates": [-97.751, 30.246]}, "properties": {"Name": "June's", "Address": "1722 S Congress Ave, Austin, TX 78704, USA", "Zip": "78704", "Price_Level(Google)": 2.0, "Rating(Google)": 4.4}}
,{"type": "Feature", "geometry": {"type": "Point", "coordinates": [-97.838, 30.222]}, "properties": {"Name": "P. Terry's Burger Stand", "Address": "4228 W William Cannon Dr, Austin, TX 78749, USA", "Zip": "78749", "Price_Level(Google)": 1.0, "Rating(Google)": 4.4}}
,{"type": "Feature", "geometry": {"type": "Point", "coordinates": [-97.752, 30.241]}, "properties": {"Name": "Vinaigrette", "Address": "2201 College Ave, Austin, TX 78704, USA", "Zip": "78704", "Price_Level(Google)": 2.0, "Rating(Google)": 4.4}}
,{"type": "Feature", "geometry": {"type": "Point", "coordinates": [-97.75, 30.247]}, "properties": {"Name": "Caf\u00e9 No S\u00e9", "Address": "1603 S Congress Ave, Austin, TX 78704, USA", "Zip": "78704", "Price_Level(Google)": 2.0, "Rating(Google)": 4.1}}
,{"type": "Feature", "geometry": {"type": "Point", "coordinates": [-97.751, 30.247]}, "properties": {"Name": "Vespaio", "Address": "1610 S Congress Ave, Austin, TX 78704, USA", "Zip": "78704", "Price_Level(Google)": 3.0, "Rating(Google)": 4.5}}
,{"type": "Feature", "geometry": {"type": "Point", "coordinates": [-97.749, 30.258]}, "properties": {"Name": "Threadgill's", "Address": "301 W Riverside Dr, Austin, TX 78704, USA", "Zip": "78704", "Price_Level(Google)": 2.0, "Rating(Google)": 3.7}}
,{"type": "Feature", "geometry": {"type": "Point", "coordinates": [-97.759, 30.259]}, "properties": {"Name": "Eberly", "Address": "615 S. Lamar, Austin, TX 78704, USA", "Zip": "78704", "Price_Level(Google)": 2.0, "Rating(Google)": 4.4}}
,{"type": "Feature", "geometry": {"type": "Point", "coordinates": [-97.801, 30.275]}, "properties": {"Name": "Jason's Deli", "Address": "3300 Bee Caves Rd, Austin, TX 78746, USA", "Zip": "78746", "Price_Level(Google)": 0.0, "Rating(Google)": 4.3}}
,{"type": "Feature", "geometry": {"type": "Point", "coordinates": [-97.782, 30.243]}, "properties": {"Name": "Phil's Icehouse", "Address": "2901 S Lamar Blvd, Austin, TX 78704, USA", "Zip": "78704", "Price_Level(Google)": 1.0, "Rating(Google)": 4.4}}
,{"type": "Feature", "geometry": {"type": "Point", "coordinates": [-97.736, 30.306]}, "properties": {"Name": "New World Deli", "Address": "4101 Guadalupe St, Austin, TX 78751, USA", "Zip": "78751", "Price_Level(Google)": 0.0, "Rating(Google)": 4.4}}
,{"type": "Feature", "geometry": {"type": "Point", "coordinates": [-97.715, 30.313]}, "properties": {"Name": "Sala and Betty", "Address": "5201 Airport Blvd, Austin, TX 78751, USA", "Zip": "78751", "Price_Level(Google)": 2.0, "Rating(Google)": 4.5}}
,{"type": "Feature", "geometry": {"type": "Point", "coordinates": [-97.762, 30.262]}, "properties": {"Name": "Austin Java", "Address": "1608 Barton Springs Rd, Austin, TX 78704, USA", "Zip": "78704", "Price_Level(Google)": 2.0, "Rating(Google)": 4.0}}
,{"type": "Feature", "geometry": {"type": "Point", "coordinates": [-97.762, 30.263]}, "properties": {"Name": "Shady Grove", "Address": "1624 Barton Springs Rd, Austin, TX 78704, USA", "Zip": "78704", "Price_Level(Google)": 1.0, "Rating(Google)": 4.1}}
,{"type": "Feature", "geometry": {"type": "Point", "coordinates": [-97.784, 30.243]}, "properties": {"Name": "Wholly Cow Burgers", "Address": "3010 S Lamar Blvd, Austin, TX 78704, USA", "Zip": "78704", "Price_Level(Google)": 0.0, "Rating(Google)": 4.4}}
,{"type": "Feature", "geometry": {"type": "Point", "coordinates": [-98.467, 29.5]}, "properties": {"Name": "Frederick's Restaurant", "Address": "7701 Broadway St # 20, San Antonio, TX 78209, USA", "Zip": "78209", "Price_Level(Google)": 3.0, "Rating(Google)": 4.4}}
,{"type": "Feature", "geometry": {"type": "Point", "coordinates": [-97.83, 30.213]}, "properties": {"Name": "Cafe Malta", "Address": "3421 W William Cannon Dr #127, Austin, TX 78745, USA", "Zip": "78745", "Price_Level(Google)": 2.0, "Rating(Google)": 4.3}}
,{"type": "Feature", "geometry": {"type": "Point", "coordinates": [-97.668, 30.202]}, "properties": {"Name": "Salt Lick", "Address": "3600 Presidential Blvd, Austin, TX 78719, USA", "Zip": "78719", "Price_Level(Google)": 2.0, "Rating(Google)": 4.0}}
,{"type": "Feature", "geometry": {"type": "Point", "coordinates": [-97.687, 30.279]}, "properties": {"Name": "Country Boyz Fixins LLC", "Address": "4140 E 12th St, Austin, TX 78721, USA", "Zip": "78721", "Price_Level(Google)": 1.0, "Rating(Google)": 4.5}}
,{"type": "Feature", "geometry": {"type": "Point", "coordinates": [-97.703, 30.283]}, "properties": {"Name": "Whataburger", "Address": "3210 E Martin Luther King Jr Blvd, Austin, TX 78721, USA", "Zip": "78721", "Price_Level(Google)": 1.0, "Rating(Google)": 3.8}}
,{"type": "Feature", "geometry": {"type": "Point", "coordinates": [-97.718, 30.285]}, "properties": {"Name": "Haymaker", "Address": "2310 Manor Rd, Austin, TX 78722, USA", "Zip": "78722", "Price_Level(Google)": 1.0, "Rating(Google)": 4.2}}
,{"type": "Feature", "geometry": {"type": "Point", "coordinates": [-97.721, 30.284]}, "properties": {"Name": "Salty Sow", "Address": "1917 Manor Rd, Austin, TX 78722, USA", "Zip": "78722", "Price_Level(Google)": 3.0, "Rating(Google)": 4.6}}
,{"type": "Feature", "geometry": {"type": "Point", "coordinates": [-97.719, 30.284]}, "properties": {"Name": "Mi Madre's Restaurant", "Address": "2201 Manor Rd, Austin, TX 78722, USA", "Zip": "78722", "Price_Level(Google)": 2.0, "Rating(Google)": 4.2}}
,{"type": "Feature", "geometry": {"type": "Point", "coordinates": [-97.719, 30.284]}, "properties": {"Name": "Eastside Caf\u00e9", "Address": "2113 Manor Rd, Austin, TX 78722, USA", "Zip": "78722", "Price_Level(Google)": 2.0, "Rating(Google)": 4.4}}
,{"type": "Feature", "geometry": {"type": "Point", "coordinates": [-97.717, 30.285]}, "properties": {"Name": "Dai Due", "Address": "2406 Manor Rd, Austin, TX 78722, USA", "Zip": "78722", "Price_Level(Google)": 3.0, "Rating(Google)": 4.7}}
,{"type": "Feature", "geometry": {"type": "Point", "coordinates": [-97.716, 30.425]}, "properties": {"Name": "Silver Grill Cafe", "Address": "4005 W Parmer Ln, Austin, TX 78727, USA", "Zip": "78727", "Price_Level(Google)": 2.0, "Rating(Google)": 3.7}}
,{"type": "Feature", "geometry": {"type": "Point", "coordinates": [-97.702, 30.424]}, "properties": {"Name": "Opal Divine's Marina", "Address": "12709 N Mopac Expy, Austin, TX 78727, USA", "Zip": "78727", "Price_Level(Google)": 2.0, "Rating(Google)": 4.1}}
,{"type": "Feature", "geometry": {"type": "Point", "coordinates": [-97.75, 30.429]}, "properties": {"Name": "Minh's Cafe", "Address": "12221 Riata Trace Pkwy, Austin, TX 78727, USA", "Zip": "78727", "Price_Level(Google)": 2.0, "Rating(Google)": 3.9}}
,{"type": "Feature", "geometry": {"type": "Point", "coordinates": [-97.746, 30.442]}, "properties": {"Name": "Cajun Pizza Place", "Address": "6001 W Parmer Ln #440, Austin, TX 78727, USA", "Zip": "78727", "Price_Level(Google)": 2.0, "Rating(Google)": 4.3}}
,{"type": "Feature", "geometry": {"type": "Point", "coordinates": [-97.686, 30.446]}, "properties": {"Name": "Garbo's", "Address": "14735 Bratton Ln, Austin, TX 78728, USA", "Zip": "78728", "Price_Level(Google)": 1.0, "Rating(Google)": 4.3}}
,{"type": "Feature", "geometry": {"type": "Point", "coordinates": [-97.671, 30.434]}, "properties": {"Name": "IHOP", "Address": "14310 N Ih 35, Austin, TX 78728, USA", "Zip": "78728", "Price_Level(Google)": 1.0, "Rating(Google)": 3.6}}
,{"type": "Feature", "geometry": {"type": "Point", "coordinates": [-97.695, 30.45]}, "properties": {"Name": "Ramos Restaurant III", "Address": "14611 MoPac Expy # 103, Austin, TX 78728, USA", "Zip": "78728", "Price_Level(Google)": 1.0, "Rating(Google)": 4.4}}
,{"type": "Feature", "geometry": {"type": "Point", "coordinates": [-97.685, 30.446]}, "properties": {"Name": "Four Seasons Chinese Restaurant", "Address": "14735 Bratton Ln, Austin, TX 78728, USA", "Zip": "78728", "Price_Level(Google)": 2.0, "Rating(Google)": 3.8}}
,{"type": "Feature", "geometry": {"type": "Point", "coordinates": [-97.675, 30.435]}, "properties": {"Name": "Godavari", "Address": "1779 Wells Branch Pkwy #102, Austin, TX 78728, USA", "Zip": "78728", "Price_Level(Google)": 0.0, "Rating(Google)": 3.9}}
,{"type": "Feature", "geometry": {"type": "Point", "coordinates": [-97.678, 30.479]}, "properties": {"Name": "Pho Hoang Restaurant", "Address": "399 W Louis Henna Blvd c, Austin, TX 78728, USA", "Zip": "78728", "Price_Level(Google)": 2.0, "Rating(Google)": 4.4}}
,{"type": "Feature", "geometry": {"type": "Point", "coordinates": [-97.674, 30.435]}, "properties": {"Name": "El Faro", "Address": "1779 Wells Branch Pkwy # 108, Austin, TX 78728, USA", "Zip": "78728", "Price_Level(Google)": 1.0, "Rating(Google)": 4.6}}
,{"type": "Feature", "geometry": {"type": "Point", "coordinates": [-97.671, 30.421]}, "properties": {"Name": "Arby's", "Address": "13609 North I-35 Bldg 5, Austin, TX 78753, United States", "Zip": "78753", "Price_Level(Google)": 1.0, "Rating(Google)": 4.0}}
,{"type": "Feature", "geometry": {"type": "Point", "coordinates": [-97.75, 30.309]}, "properties": {"Name": "Russell's Bistro", "Address": "1601 W 38th St Ste. 1, Austin, TX 78731, USA", "Zip": "78731", "Price_Level(Google)": 0.0, "Rating(Google)": 4.4}}
,{"type": "Feature", "geometry": {"type": "Point", "coordinates": [-97.789, 30.36]}, "properties": {"Name": "Siena Restaurant", "Address": "6203 N Capital of Texas Hwy, Austin, TX 78731, USA", "Zip": "78731", "Price_Level(Google)": 2.0, "Rating(Google)": 4.1}}
,{"type": "Feature", "geometry": {"type": "Point", "coordinates": [-97.759, 30.371]}, "properties": {"Name": "Mangia Pizza", "Address": "8012 Mesa Dr, Austin, TX 78731, USA", "Zip": "78731", "Price_Level(Google)": 2.0, "Rating(Google)": 4.0}}
,{"type": "Feature", "geometry": {"type": "Point", "coordinates": [-97.749, 30.357]}, "properties": {"Name": "Austin Terrier", "Address": "3435 Greystone Dr, Austin, TX 78731, USA", "Zip": "78731", "Price_Level(Google)": 2.0, "Rating(Google)": 4.3}}
,{"type": "Feature", "geometry": {"type": "Point", "coordinates": [-97.748, 30.357]}, "properties": {"Name": "Chinatown", "Address": "3407 Greystone Dr, Austin, TX 78731, USA", "Zip": "78731", "Price_Level(Google)": 2.0, "Rating(Google)": 4.0}}
,{"type": "Feature", "geometry": {"type": "Point", "coordinates": [-97.756, 30.355]}, "properties": {"Name": "Saffron", "Address": "3616 Far West Blvd #113, Austin, TX 78731, USA", "Zip": "78731", "Price_Level(Google)": 2.0, "Rating(Google)": 4.3}}
,{"type": "Feature", "geometry": {"type": "Point", "coordinates": [-97.755, 30.353]}, "properties": {"Name": "Kneaded Pleasures Pizza Cafe", "Address": "3573 Far West Blvd, Austin, TX 78731, USA", "Zip": "78731", "Price_Level(Google)": 1.0, "Rating(Google)": 3.9}}
,{"type": "Feature", "geometry": {"type": "Point", "coordinates": [-97.748, 30.357]}, "properties": {"Name": "Street Restaurant", "Address": "3407 Greystone Dr, Austin, TX 78731, USA", "Zip": "78731", "Price_Level(Google)": 2.0, "Rating(Google)": 4.5}}
,{"type": "Feature", "geometry": {"type": "Point", "coordinates": [-97.756, 30.339]}, "properties": {"Name": "ZuZu Handmade Mexican Food", "Address": "5770 N Mopac Expy #500, Austin, TX 78731, USA", "Zip": "78731", "Price_Level(Google)": 2.0, "Rating(Google)": 4.1}}
,{"type": "Feature", "geometry": {"type": "Point", "coordinates": [-97.885, 30.333]}, "properties": {"Name": "Ronnie's Real Food Bistro", "Address": "205 N Commons Ford Rd #2, Austin, TX 78733, USA", "Zip": "78733", "Price_Level(Google)": 0.0, "Rating(Google)": 4.7}}
,{"type": "Feature", "geometry": {"type": "Point", "coordinates": [-97.863, 30.341]}, "properties": {"Name": "M&H Music Cafe", "Address": "1803 Cuernavaca Dr N, Austin, TX 78733, USA", "Zip": "78733", "Price_Level(Google)": 0.0, "Rating(Google)": 5.0}}
,{"type": "Feature", "geometry": {"type": "Point", "coordinates": [-97.962, 30.355]}, "properties": {"Name": "Artisan Bistro", "Address": "suite C108, 900 RR 620 S, Austin, TX 78738, United States", "Zip": "78738", "Price_Level(Google)": 2.0, "Rating(Google)": 4.5}}
,{"type": "Feature", "geometry": {"type": "Point", "coordinates": [-97.876, 30.234]}, "properties": {"Name": "Jim's", "Address": "Austin, TX 78735, USA", "Zip": "78735", "Price_Level(Google)": 2.0, "Rating(Google)": 4.2}}
,{"type": "Feature", "geometry": {"type": "Point", "coordinates": [-97.883, 30.244]}, "properties": {"Name": "Jack Allen's Kitchen Oak Hill", "Address": "7720 TX-71, Austin, TX 78735, USA", "Zip": "78735", "Price_Level(Google)": 2.0, "Rating(Google)": 4.6}}
,{"type": "Feature", "geometry": {"type": "Point", "coordinates": [-97.934, 30.23]}, "properties": {"Name": "Lox, Box & Barrel", "Address": "9521 US-290 #100, Austin, TX 78737, USA", "Zip": "78737", "Price_Level(Google)": 1.0, "Rating(Google)": 4.5}}
,{"type": "Feature", "geometry": {"type": "Point", "coordinates": [-97.984, 30.204]}, "properties": {"Name": "Trudy's Four Star", "Address": "13059 Four Star Blvd, Austin, TX 78737, USA", "Zip": "78737", "Price_Level(Google)": 2.0, "Rating(Google)": 3.7}}
,{"type": "Feature", "geometry": {"type": "Point", "coordinates": [-97.968, 30.211]}, "properties": {"Name": "Pieous", "Address": "12005 US-290, Austin, TX 78737, USA", "Zip": "78737", "Price_Level(Google)": 1.0, "Rating(Google)": 4.7}}
,{"type": "Feature", "geometry": {"type": "Point", "coordinates": [-97.953, 30.309]}, "properties": {"Name": "The Emerald Restaurant", "Address": "3107, 13614 TX-71, Austin, TX 78738, United States", "Zip": "78738", "Price_Level(Google)": 3.0, "Rating(Google)": 4.4}}
,{"type": "Feature", "geometry": {"type": "Point", "coordinates": [-97.94, 30.309]}, "properties": {"Name": "Cafe Blue at Hill Country Galleria", "Address": "12800 Hill Country Blvd. Suite G-115, Bee Cave, TX 78738, United States", "Zip": "78738", "Price_Level(Google)": 2.0, "Rating(Google)": 4.1}}
,{"type": "Feature", "geometry": {"type": "Point", "coordinates": [-98.544, 29.574]}, "properties": {"Name": "Frederick's Bistro", "Address": "14439 NW Military Hwy #100, San Antonio, TX 78231, USA", "Zip": "78231", "Price_Level(Google)": 3.0, "Rating(Google)": 4.2}}
,{"type": "Feature", "geometry": {"type": "Point", "coordinates": [-97.753, 30.211]}, "properties": {"Name": "The Limestone Kitchen Restaurant & Lounge", "Address": "4415 S IH 35 Frontage Rd, Austin, TX 78744, USA", "Zip": "78744", "Price_Level(Google)": 0.0, "Rating(Google)": 3.2}}
,{"type": "Feature", "geometry": {"type": "Point", "coordinates": [-97.69, 30.218]}, "properties": {"Name": "Javi's Best Of Tex Mex", "Address": "7709 E Ben White Blvd, Austin, TX 78744, USA", "Zip": "78744", "Price_Level(Google)": 0.0, "Rating(Google)": 4.2}}
,{"type": "Feature", "geometry": {"type": "Point", "coordinates": [-97.75, 30.215]}, "properties": {"Name": "Onion Creek Grill", "Address": "4140 Governors Row, Austin, TX 78744, USA", "Zip": "78744", "Price_Level(Google)": 0.0, "Rating(Google)": 4.2}}
,{"type": "Feature", "geometry": {"type": "Point", "coordinates": [-97.767, 30.193]}, "properties": {"Name": "Applebee\u2019s Grill + Bar", "Address": "6315 S IH 35 Frontage Rd, Austin, TX 78744, USA", "Zip": "78744", "Price_Level(Google)": 2.0, "Rating(Google)": 3.4}}
,{"type": "Feature", "geometry": {"type": "Point", "coordinates": [-97.731, 30.213]}, "properties": {"Name": "Bella Donna Subs", "Address": "4612 Burleson Rd, Austin, TX 78744, USA", "Zip": "78744", "Price_Level(Google)": 0.0, "Rating(Google)": 4.6}}
,{"type": "Feature", "geometry": {"type": "Point", "coordinates": [-97.745, 30.195]}, "properties": {"Name": "La Placita", "Address": "5310 S Pleasant Valley Rd, Austin, TX 78744, USA", "Zip": "78744", "Price_Level(Google)": 0.0, "Rating(Google)": 4.2}}
,{"type": "Feature", "geometry": {"type": "Point", "coordinates": [-97.784, 30.168]}, "properties": {"Name": "IHOP", "Address": "8801 S IH 35 Frontage Rd, Austin, TX 78744, USA", "Zip": "78744", "Price_Level(Google)": 1.0, "Rating(Google)": 3.5}}
,{"type": "Feature", "geometry": {"type": "Point", "coordinates": [-97.684, 30.213]}, "properties": {"Name": "AGAZAJO'S", "Address": "2406 S Hwy 183, Austin, TX 78744, USA", "Zip": "78744", "Price_Level(Google)": 0.0, "Rating(Google)": 4.2}}
,{"type": "Feature", "geometry": {"type": "Point", "coordinates": [-97.745, 30.215]}, "properties": {"Name": "Asia", "Address": "1931 E Ben White Blvd #300, Austin, TX 78741, USA", "Zip": "78741", "Price_Level(Google)": 2.0, "Rating(Google)": 3.8}}
,{"type": "Feature", "geometry": {"type": "Point", "coordinates": [-97.694, 30.165]}, "properties": {"Name": "SUBWAY\u00aeRestaurants", "Address": "6422 US-183, Austin, TX 78744, USA", "Zip": "78744", "Price_Level(Google)": 1.0, "Rating(Google)": 3.8}}
,{"type": "Feature", "geometry": {"type": "Point", "coordinates": [-97.684, 30.205]}, "properties": {"Name": "Taqueria Morelos", "Address": "3100 US-183, Austin, TX 78744, USA", "Zip": "78744", "Price_Level(Google)": 0.0, "Rating(Google)": 4.6}}
,{"type": "Feature", "geometry": {"type": "Point", "coordinates": [-97.784, 30.17]}, "properties": {"Name": "Don Dario's Cantina", "Address": "8801 S IH 35 Frontage Rd, Austin, TX 78744, USA", "Zip": "78744", "Price_Level(Google)": 0.0, "Rating(Google)": 4.1}}
,{"type": "Feature", "geometry": {"type": "Point", "coordinates": [-97.789, 30.158]}, "properties": {"Name": "Chuck E. Cheese's", "Address": "9811 S IH 35 Frontage Rd, Austin, TX 78744, USA", "Zip": "78744", "Price_Level(Google)": 1.0, "Rating(Google)": 3.9}}
,{"type": "Feature", "geometry": {"type": "Point", "coordinates": [-97.767, 30.188]}, "properties": {"Name": "Sonic Drive-In", "Address": "1805 E William Cannon Dr, Austin, TX 78744, USA", "Zip": "78744", "Price_Level(Google)": 1.0, "Rating(Google)": 3.5}}
,{"type": "Feature", "geometry": {"type": "Point", "coordinates": [-97.721, 30.208]}, "properties": {"Name": "El Mes\u00f3n", "Address": "5808 Burleson Rd, Austin, TX 78744, USA", "Zip": "78744", "Price_Level(Google)": 1.0, "Rating(Google)": 4.0}}
,{"type": "Feature", "geometry": {"type": "Point", "coordinates": [-97.688, 30.218]}, "properties": {"Name": "Waffle House", "Address": "7809 E Ben White Blvd, Austin, TX 78744, USA", "Zip": "78744", "Price_Level(Google)": 1.0, "Rating(Google)": 3.9}}
,{"type": "Feature", "geometry": {"type": "Point", "coordinates": [-97.769, 30.248]}, "properties": {"Name": "Olivia", "Address": "2043 S Lamar Blvd, Austin, TX 78704, USA", "Zip": "78704", "Price_Level(Google)": 3.0, "Rating(Google)": 3.9}}
,{"type": "Feature", "geometry": {"type": "Point", "coordinates": [-97.827, 30.291]}, "properties": {"Name": "P. Terry's Burger Stand", "Address": "701 S Capital of Texas Hwy, West Lake Hills, TX 78746, USA", "Zip": "78746", "Price_Level(Google)": 1.0, "Rating(Google)": 4.2}}
,{"type": "Feature", "geometry": {"type": "Point", "coordinates": [-97.841, 30.223]}, "properties": {"Name": "Kerbey Lane Cafe", "Address": "4301 W William Cannon Dr, Austin, TX 78749, USA", "Zip": "78749", "Price_Level(Google)": 1.0, "Rating(Google)": 4.3}}
,{"type": "Feature", "geometry": {"type": "Point", "coordinates": [-97.868, 30.2]}, "properties": {"Name": "North by Northwest Restaurant & Brewery - Slaughter", "Address": "5701 W Slaughter Ln D, Austin, TX 78749, USA", "Zip": "78749", "Price_Level(Google)": 0.0, "Rating(Google)": 4.2}}
,{"type": "Feature", "geometry": {"type": "Point", "coordinates": [-97.839, 30.224]}, "properties": {"Name": "Cypress Grill", "Address": "4404 W William Cannon Dr, Austin, TX 78749, USA", "Zip": "78749", "Price_Level(Google)": 2.0, "Rating(Google)": 4.5}}
,{"type": "Feature", "geometry": {"type": "Point", "coordinates": [-97.863, 30.228]}, "properties": {"Name": "Hecho En Mexico", "Address": "6001 W William Cannon Dr # 301, Austin, TX 78749, USA", "Zip": "78749", "Price_Level(Google)": 2.0, "Rating(Google)": 4.4}}
,{"type": "Feature", "geometry": {"type": "Point", "coordinates": [-97.842, 30.218]}, "properties": {"Name": "Chuy's", "Address": "4301 W William Cannon Dr, Austin, TX 78749, USA", "Zip": "78749", "Price_Level(Google)": 0.0, "Rating(Google)": 4.4}}
,{"type": "Feature", "geometry": {"type": "Point", "coordinates": [-97.843, 30.223]}, "properties": {"Name": "Flores Mexican Restaurant", "Address": "4625 W William Cannon Dr, Austin, TX 78749, USA", "Zip": "78749", "Price_Level(Google)": 0.0, "Rating(Google)": 4.2}}
,{"type": "Feature", "geometry": {"type": "Point", "coordinates": [-97.705, 30.325]}, "properties": {"Name": "Pappadeaux Seafood Kitchen", "Address": "6319 N Interstate 35, Austin, TX 78752, USA", "Zip": "78752", "Price_Level(Google)": 3.0, "Rating(Google)": 4.4}}
,{"type": "Feature", "geometry": {"type": "Point", "coordinates": [-97.731, 30.357]}, "properties": {"Name": "Bartlett's", "Address": "2408 W Anderson Ln, Austin, TX 78757, USA", "Zip": "78757", "Price_Level(Google)": 2.0, "Rating(Google)": 4.3}}
,{"type": "Feature", "geometry": {"type": "Point", "coordinates": [-97.736, 30.36]}, "properties": {"Name": "San Francisco Bakery & Caf\u00e9", "Address": "2900 W Anderson Ln, Austin, TX 78757, USA", "Zip": "78757", "Price_Level(Google)": 2.0, "Rating(Google)": 4.4}}
,{"type": "Feature", "geometry": {"type": "Point", "coordinates": [-97.728, 30.367]}, "properties": {"Name": "P. Terry's Burger Stand", "Address": "8515 Burnet Rd, Austin, TX 78757, USA", "Zip": "78757", "Price_Level(Google)": 0.0, "Rating(Google)": 4.4}}
,{"type": "Feature", "geometry": {"type": "Point", "coordinates": [-97.733, 30.355]}, "properties": {"Name": "McAlister's Deli", "Address": "2525 W Anderson Ln #130, Austin, TX 78757, USA", "Zip": "78757", "Price_Level(Google)": 2.0, "Rating(Google)": 3.7}}
,{"type": "Feature", "geometry": {"type": "Point", "coordinates": [-97.738, 30.344]}, "properties": {"Name": "The Frisco Shop", "Address": "6801 Burnet Rd, Austin, TX 78757, USA", "Zip": "78757", "Price_Level(Google)": 2.0, "Rating(Google)": 4.2}}
,{"type": "Feature", "geometry": {"type": "Point", "coordinates": [-97.734, 30.351]}, "properties": {"Name": "Top Notch Hamburgers", "Address": "7525 Burnet Rd, Austin, TX 78757, USA", "Zip": "78757", "Price_Level(Google)": 1.0, "Rating(Google)": 4.4}}
,{"type": "Feature", "geometry": {"type": "Point", "coordinates": [-97.732, 30.354]}, "properties": {"Name": "The Factory - Cafe with a Soul in Wild Chix & Waffles", "Address": "7714 Burnet Rd, Austin, TX 78757, USA", "Zip": "78757", "Price_Level(Google)": 1.0, "Rating(Google)": 4.3}}
]}