{"type": "FeatureCollection", "features": [
{"type": "Feature", "geometry": {"type": "Point", "coordinates": [-73.18, 44.465]}, "properties": {"Name": "HANA Japanese Restaurant", "Address": "#340, 150 Dorset St, South Burlington, VT 05403, United States", "Zip": "05403", "Price_Level(Google)": 0.0, "Rating(Google)": 4.4}}
,{"type": "Feature", "geometry": {"type": "Point", "coordinates": [-73.209, 44.445]}, "properties": {"Name": "Koto Japanese Restaurant", "Address": "792 Shelburne Rd, South Burlington, VT 05403, USA", "Zip": "05403", "Price_Level(Google)": 2.0, "Rating(Google)": 4.2}}
,{"type": "Feature", "geometry": {"type": "Point", "coordinates": [-73.213, 44.478]}, "properties": {"Name": "Asiana Noodle Shop", "Address": "88 Church St, Burlington, VT 05401, USA", "Zip": "05401", "Price_Level(Google)": 2.0, "Rating(Google)": 3.9}}
,{"type": "Feature", "geometry": {"type": "Point", "coordinates": [-73.212, 44.477]}, "properties": {"Name": "Bento Japanese Delicatessen", "Address": "197 College St, Burlington, VT 05401, USA", "Zip": "05401", "Price_Level(Google)": 0.0, "Rating(Google)": 5.0}}
,{"type": "Feature", "geometry": {"type": "Point", "coordinates": [-73.211, 44.48]}, "properties": {"Name": "Asiana House", "Address": "191 Pearl St, Burlington, VT 05401, USA", "Zip": "05401", "Price_Level(Google)": 1.0, "Rating(Google)": 4.3}}
,{"type": "Feature", "geometry": {"type": "Point", "coordinates": [-73.214, 44.477]}, "properties": {"Name": "HJ House", "Address": "95 St Paul St, Burlington, VT 05401, USA", "Zip": "05401", "Price_Level(Google)": 0.0, "Rating(Google)": 4.4}}
,{"type": "Feature", "geometry": {"type": "Point", "coordinates": [-73.212, 44.476]}, "properties": {"Name": "Gaku Ramen", "Address": "144 Church St, Burlington, VT 05401, USA", "Zip": "05401", "Price_Level(Google)": 0.0, "Rating(Google)": 4.2}}
,{"type": "Feature", "geometry": {"type": "Point", "coordinates": [-73.11, 44.45]}, "properties": {"Name": "Sakura Sushi & Kitchen", "Address": "19 Taft Corners Shopping Center, Williston, VT 05495, USA", "Zip": "05495", "Price_Level(Google)": 2.0, "Rating(Google)": 4.3}}
,{"type": "Feature", "geometry": {"type": "Point", "coordinates": [-73.184, 44.465]}, "properties": {"Name": "Tokyo", "Address": "55 Dorset St, South Burlington, VT 05403, USA", "Zip": "05403", "Price_Level(Google)": 0.0, "Rating(Google)": 5.0}}
,{"type": "Feature", "geometry": {"type": "Point", "coordinates": [-73.185, 44.49]}, "properties": {"Name": "Asian Bistro", "Address": "25 Winooski Falls Way # 112, Winooski, VT 05404, USA", "Zip": "05404", "Price_Level(Google)": 2.0, "Rating(Google)": 4.3}}
,{"type": "Feature", "geometry": {"type": "Point", "coordinates": [-73.108, 44.446]}, "properties": {"Name": "Asian Bistro", "Address": "121 Connor Way, Williston, VT 05495, USA", "Zip": "05495", "Price_Level(Google)": 2.0, "Rating(Google)": 3.8}}
]}