{"type": "FeatureCollection", "features": [
{"type": "Feature", "geometry": {"type": "Point", "coordinates": [-97.127, 31.559]}, "properties": {"Name": "Artisan Oven", "Address": "202 S University Parks Dr, Waco, TX 76701, USA", "Zip": "76701", "Price_Level(Google)": 0.0, "Rating(Google)": 5.0}}
,{"type": "Feature", "geometry": {"type": "Point", "coordinates": [-97.13, 31.556]}, "properties": {"Name": "Clay Pot Restaurant", "Address": "416 Franklin Ave, Waco, TX 76701, USA", "Zip": "76701", "Price_Level(Google)": 2.0, "Rating(Google)": 4.0}}
,{"type": "Feature", "geometry": {"type": "Point", "coordinates": [-97.134, 31.555]}, "properties": {"Name": "Portofino's", "Address": "725 Austin Ave, Waco, TX 76708, USA", "Zip": "76708", "Price_Level(Google)": 0.0, "Rating(Google)": 4.1}}
,{"type": "Feature", "geometry": {"type": "Point", "coordinates": [-97.125, 31.549]}, "properties": {"Name": "Fazoli's", "Address": "919 S 6th St, Waco, TX 76706, USA", "Zip": "76706", "Price_Level(Google)": 1.0, "Rating(Google)": 4.0}}
,{"type": "Feature", "geometry": {"type": "Point", "coordinates": [-97.125, 31.54]}, "properties": {"Name": "Domino's Pizza", "Address": "1201 Speight Ave, Waco, TX 76706, USA", "Zip": "76706", "Price_Level(Google)": 1.0, "Rating(Google)": 3.3}}
,{"type": "Feature", "geometry": {"type": "Point", "coordinates": [-97.123, 31.539]}, "properties": {"Name": "Shorty's Pizza Shack", "Address": "1712 S 12th St, Waco, TX 76706, USA", "Zip": "76706", "Price_Level(Google)": 2.0, "Rating(Google)": 4.6}}
,{"type": "Feature", "geometry": {"type": "Point", "coordinates": [-97.177, 31.53]}, "properties": {"Name": "Poppa Rollo's Pizza", "Address": "703 N Valley Mills Dr, Waco, TX 76710, USA", "Zip": "76710", "Price_Level(Google)": 2.0, "Rating(Google)": 4.4}}
,{"type": "Feature", "geometry": {"type": "Point", "coordinates": [-97.196, 31.532]}, "properties": {"Name": "Cicis", "Address": "1609 N Valley Mills Dr, Waco, TX 76710, USA", "Zip": "76710", "Price_Level(Google)": 0.0, "Rating(Google)": 2.8}}
,{"type": "Feature", "geometry": {"type": "Point", "coordinates": [-97.186, 31.536]}, "properties": {"Name": "MOROSO Wood Fired Pizzeria", "Address": "4700 Bosque Blvd, Waco, TX 76710, USA", "Zip": "76710", "Price_Level(Google)": 0.0, "Rating(Google)": 4.5}}
,{"type": "Feature", "geometry": {"type": "Point", "coordinates": [-97.126, 31.549]}, "properties": {"Name": "Papa John's Pizza", "Address": "720 S 7th St, Waco, TX 76706, USA", "Zip": "76706", "Price_Level(Google)": 0.0, "Rating(Google)": 4.0}}
,{"type": "Feature", "geometry": {"type": "Point", "coordinates": [-97.182, 31.53]}, "properties": {"Name": "Baris", "Address": "904 N Valley Mills Dr, Waco, TX 76710, USA", "Zip": "76710", "Price_Level(Google)": 2.0, "Rating(Google)": 4.6}}
,{"type": "Feature", "geometry": {"type": "Point", "coordinates": [-97.129, 31.56]}, "properties": {"Name": "Brazos Grille at the Hilton Waco", "Address": "113 S University Parks Dr, Waco, TX 76701, USA", "Zip": "76701", "Price_Level(Google)": 0.0, "Rating(Google)": 5.0}}
,{"type": "Feature", "geometry": {"type": "Point", "coordinates": [-97.125, 31.546]}, "properties": {"Name": "Pizza Hut", "Address": "1111 S 8th St, Waco, TX 76706, USA", "Zip": "76706", "Price_Level(Google)": 1.0, "Rating(Google)": 3.4}}
,{"type": "Feature", "geometry": {"type": "Point", "coordinates": [-97.212, 31.485]}, "properties": {"Name": "Poppa Rollo's Pizza - Hewitt Dr.", "Address": "1201 Hewitt Dr #214, Waco, TX 76712, USA", "Zip": "76712", "Price_Level(Google)": 2.0, "Rating(Google)": 4.5}}
,{"type": "Feature", "geometry": {"type": "Point", "coordinates": [-97.142, 31.549]}, "properties": {"Name": "1424 Bistro", "Address": "1424 Washington Ave, Waco, TX 76701, USA", "Zip": "76701", "Price_Level(Google)": 2.0, "Rating(Google)": 4.0}}
,{"type": "Feature", "geometry": {"type": "Point", "coordinates": [-97.145, 31.526]}, "properties": {"Name": "Little Caesars Pizza", "Address": "1320 S Valley Mills Dr, Waco, TX 76711, USA", "Zip": "76711", "Price_Level(Google)": 1.0, "Rating(Google)": 4.3}}
,{"type": "Feature", "geometry": {"type": "Point", "coordinates": [-97.213, 31.49]}, "properties": {"Name": "Rosati's Pizza Sports Pub", "Address": "824 Hewitt Dr, Waco, TX 76712, USA", "Zip": "76712", "Price_Level(Google)": 3.0, "Rating(Google)": 4.1}}
,{"type": "Feature", "geometry": {"type": "Point", "coordinates": [-97.128, 31.557]}, "properties": {"Name": "Ninfa's Mexican Restaurant", "Address": "220 S 3rd St, Waco, TX 76701, USA", "Zip": "76701", "Price_Level(Google)": 2.0, "Rating(Google)": 3.9}}
,{"type": "Feature", "geometry": {"type": "Point", "coordinates": [-97.192, 31.531]}, "properties": {"Name": "Little Caesars Pizza", "Address": "1412 N Valley Mills Dr #100, Waco, TX 76710, USA", "Zip": "76710", "Price_Level(Google)": 1.0, "Rating(Google)": 3.4}}
,{"type": "Feature", "geometry": {"type": "Point", "coordinates": [-97.136, 31.552]}, "properties": {"Name": "Alpha Omega Grill & Bakery", "Address": "929 Franklin Ave, Waco, TX 76701, USA", "Zip": "76701", "Price_Level(Google)": 0.0, "Rating(Google)": 4.6}}
,{"type": "Feature", "geometry": {"type": "Point", "coordinates": [-97.108, 31.6]}, "properties": {"Name": "Little Caesars Pizza", "Address": "1517 Interstate 35 N, Ste 150, Bellmead, TX 76705, United States", "Zip": "76705", "Price_Level(Google)": 1.0, "Rating(Google)": 4.1}}
,{"type": "Feature", "geometry": {"type": "Point", "coordinates": [-97.243, 31.629]}, "properties": {"Name": "Marco's Pizza", "Address": "A, 10324 China Spring Rd, Waco, TX 76708, United States", "Zip": "76708", "Price_Level(Google)": 2.0, "Rating(Google)": 4.3}}
,{"type": "Feature", "geometry": {"type": "Point", "coordinates": [-97.191, 31.533]}, "properties": {"Name": "Domino's Pizza", "Address": "1428 Wooded Acres Dr Ste 130, Waco, TX 76710, USA", "Zip": "76710", "Price_Level(Google)": 1.0, "Rating(Google)": 3.8}}
,{"type": "Feature", "geometry": {"type": "Point", "coordinates": [-97.193, 31.535]}, "properties": {"Name": "Pizza Hut Express", "Address": "5401 Bosque Blvd, Waco, TX 76710, USA", "Zip": "76710", "Price_Level(Google)": 1.0, "Rating(Google)": 5.0}}
,{"type": "Feature", "geometry": {"type": "Point", "coordinates": [-97.177, 31.529]}, "properties": {"Name": "Pizza Hut", "Address": "626 N Valley Mills Dr, Waco, TX 76710, USA", "Zip": "76710", "Price_Level(Google)": 1.0, "Rating(Google)": 3.6}}
,{"type": "Feature", "geometry": {"type": "Point", "coordinates": [-97.101, 31.604]}, "properties": {"Name": "Domino's Pizza", "Address": "700 N Loop 340, Bellmead, TX 76705, United States", "Zip": "76705", "Price_Level(Google)": 1.0, "Rating(Google)": 4.3}}
,{"type": "Feature", "geometry": {"type": "Point", "coordinates": [-97.128, 31.557]}, "properties": {"Name": "Olive Branch Bakery & Cafe", "Address": "215 S 2nd St, Waco, TX 76701, USA", "Zip": "76701", "Price_Level(Google)": 2.0, "Rating(Google)": 3.7}}
,{"type": "Feature", "geometry": {"type": "Point", "coordinates": [-97.1, 31.603]}, "properties": {"Name": "Pizza Hut", "Address": "601 N Loop 340, Bellmead, TX 76705, United States", "Zip": "76705", "Price_Level(Google)": 1.0, "Rating(Google)": 3.5}}
,{"type": "Feature", "geometry": {"type": "Point", "coordinates": [-97.144, 31.544]}, "properties": {"Name": "Lolita's Restaurante", "Address": "1911 Franklin Ave, Waco, TX 76701, USA", "Zip": "76701", "Price_Level(Google)": 2.0, "Rating(Google)": 4.3}}
,{"type": "Feature", "geometry": {"type": "Point", "coordinates": [-97.133, 31.556]}, "properties": {"Name": "Jake's Texas Tea House", "Address": "613 Austin Ave, Waco, TX 76701, USA", "Zip": "76701", "Price_Level(Google)": 0.0, "Rating(Google)": 4.4}}
,{"type": "Feature", "geometry": {"type": "Point", "coordinates": [-97.208, 31.483]}, "properties": {"Name": "Domino's Pizza", "Address": "1520 Hewitt Dr, Waco, TX 76712, USA", "Zip": "76712", "Price_Level(Google)": 1.0, "Rating(Google)": 3.3}}
,{"type": "Feature", "geometry": {"type": "Point", "coordinates": [-97.155, 31.496]}, "properties": {"Name": "Newk's Eatery", "Address": "2716 W Loop 340, Waco, TX 76711, USA", "Zip": "76711", "Price_Level(Google)": 0.0, "Rating(Google)": 4.0}}
,{"type": "Feature", "geometry": {"type": "Point", "coordinates": [-97.199, 31.465]}, "properties": {"Name": "Pizza Hut", "Address": "203 N Hewitt Dr, Hewitt, TX 76643, USA", "Zip": "76643", "Price_Level(Google)": 1.0, "Rating(Google)": 4.3}}
,{"type": "Feature", "geometry": {"type": "Point", "coordinates": [-97.24, 31.63]}, "properties": {"Name": "Pizza Hut", "Address": "10207 China Spring Rd, Waco, TX 76708, USA", "Zip": "76708", "Price_Level(Google)": 1.0, "Rating(Google)": 4.0}}
,{"type": "Feature", "geometry": {"type": "Point", "coordinates": [-97.127, 31.593]}, "properties": {"Name": "Swift P's JKP Pizza & Deli", "Address": "1518 Evans Dr, Waco, TX 76704, USA", "Zip": "76704", "Price_Level(Google)": 0.0, "Rating(Google)": 0.0}}
,{"type": "Feature", "geometry": {"type": "Point", "coordinates": [-97.168, 31.522]}, "properties": {"Name": "Peter Piper Pizza", "Address": "120 S New Rd, Waco, TX 76710, USA", "Zip": "76710", "Price_Level(Google)": 0.0, "Rating(Google)": 4.1}}
,{"type": "Feature", "geometry": {"type": "Point", "coordinates": [-97.125, 31.552]}, "properties": {"Name": "Pie Five Pizza Co.", "Address": "720 S 5th St #100, Waco, TX 76706, USA", "Zip": "76706", "Price_Level(Google)": 0.0, "Rating(Google)": 4.3}}
,{"type": "Feature", "geometry": {"type": "Point", "coordinates": [-97.189, 31.514]}, "properties": {"Name": "BJ's Restaurant & Brewhouse", "Address": "5929 W Waco Dr, Waco, TX 76710, USA", "Zip": "76710", "Price_Level(Google)": 0.0, "Rating(Google)": 3.8}}
,{"type": "Feature", "geometry": {"type": "Point", "coordinates": [-97.103, 31.603]}, "properties": {"Name": "Cicis", "Address": "901 N LOOP 340 Ste 4, Bellmead, TX 76705, USA", "Zip": "76705", "Price_Level(Google)": 0.0, "Rating(Google)": 3.4}}
,{"type": "Feature", "geometry": {"type": "Point", "coordinates": [-97.111, 31.542]}, "properties": {"Name": "pizza express", "Address": "301 La Salle Ave B, Waco, TX 76706, USA", "Zip": "76706", "Price_Level(Google)": 0.0, "Rating(Google)": 5.0}}
,{"type": "Feature", "geometry": {"type": "Point", "coordinates": [-97.172, 31.525]}, "properties": {"Name": "DoubleDave's Waco", "Address": "160 N New Rd, Waco, TX 76710, USA", "Zip": "76710", "Price_Level(Google)": 2.0, "Rating(Google)": 4.2}}
,{"type": "Feature", "geometry": {"type": "Point", "coordinates": [-97.181, 31.519]}, "properties": {"Name": "Fazoli's", "Address": "5201 W Waco Dr, Waco, TX 76710, USA", "Zip": "76710", "Price_Level(Google)": 1.0, "Rating(Google)": 4.1}}
,{"type": "Feature", "geometry": {"type": "Point", "coordinates": [-97.18, 31.518]}, "properties": {"Name": "Chuck E. Cheese's", "Address": "5106 W Waco Dr, Waco, TX 76710, USA", "Zip": "76710", "Price_Level(Google)": 2.0, "Rating(Google)": 3.9}}
,{"type": "Feature", "geometry": {"type": "Point", "coordinates": [-97.191, 31.535]}, "properties": {"Name": "Pizza Patron", "Address": "5201 Bosque Blvd, Waco, TX 76710, USA", "Zip": "76710", "Price_Level(Google)": 0.0, "Rating(Google)": 4.0}}
,{"type": "Feature", "geometry": {"type": "Point", "coordinates": [-97.111, 31.608]}, "properties": {"Name": "Mama Lena's Pizzas & Subs", "Address": "705 New Dallas Hwy, Waco, TX 76705, USA", "Zip": "76705", "Price_Level(Google)": 0.0, "Rating(Google)": 3.0}}
,{"type": "Feature", "geometry": {"type": "Point", "coordinates": [-97.22, 31.499]}, "properties": {"Name": "Marco's Pizza", "Address": "100 B Midway Center, Woodway, TX 76712, United States", "Zip": "76712", "Price_Level(Google)": 2.0, "Rating(Google)": 4.5}}
,{"type": "Feature", "geometry": {"type": "Point", "coordinates": [-97.149, 31.498]}, "properties": {"Name": "Old Chicago Pizza and Taproom", "Address": "4641 Jack Kultgen Fwy, Waco, TX 76711, USA", "Zip": "76711", "Price_Level(Google)": 0.0, "Rating(Google)": 3.8}}
,{"type": "Feature", "geometry": {"type": "Point", "coordinates": [-97.168, 31.527]}, "properties": {"Name": "Papa John's Pizza", "Address": "408-A N Valley Mills Dr, Waco, TX 76710, United States", "Zip": "76710", "Price_Level(Google)": 0.0, "Rating(Google)": 4.5}}
,{"type": "Feature", "geometry": {"type": "Point", "coordinates": [-97.235, 31.629]}, "properties": {"Name": "Domino's Pizza", "Address": "9901 China Spring Rd Ste A, Waco, TX 76708, USA", "Zip": "76708", "Price_Level(Google)": 1.0, "Rating(Google)": 3.6}}
,{"type": "Feature", "geometry": {"type": "Point", "coordinates": [-97.12, 31.558]}, "properties": {"Name": "Buzzard Billy's", "Address": "Interstate 35 N, 2518, 100 N Interstate 35 Frontage Rd, Waco, TX 76704, United States", "Zip": "76704", "Price_Level(Google)": 2.0, "Rating(Google)": 4.0}}
,{"type": "Feature", "geometry": {"type": "Point", "coordinates": [-97.199, 31.466]}, "properties": {"Name": "Little Caesars Pizza", "Address": "225 N Hewitt Dr, Hewitt, TX 76643, USA", "Zip": "76643", "Price_Level(Google)": 1.0, "Rating(Google)": 3.9}}
,{"type": "Feature", "geometry": {"type": "Point", "coordinates": [-97.176, 31.53]}, "properties": {"Name": "Schlotzsky's", "Address": "621 N Valley Mills Dr, Waco, TX 76710, USA", "Zip": "76710", "Price_Level(Google)": 2.0, "Rating(Google)": 4.3}}
,{"type": "Feature", "geometry": {"type": "Point", "coordinates": [-97.113, 31.466]}, "properties": {"Name": "Pizza Junction", "Address": "504 S Robinson Dr, Robinson, TX 76706, USA", "Zip": "76706", "Price_Level(Google)": 0.0, "Rating(Google)": 4.5}}
,{"type": "Feature", "geometry": {"type": "Point", "coordinates": [-97.207, 31.48]}, "properties": {"Name": "Papa John's Pizza", "Address": "911 N Hewitt Dr, Hewitt, TX 76643, USA", "Zip": "76643", "Price_Level(Google)": 0.0, "Rating(Google)": 3.8}}
,{"type": "Feature", "geometry": {"type": "Point", "coordinates": [-97.121, 31.569]}, "properties": {"Name": "Tony DeMaria's Bar-B-Que", "Address": "1000 Elm Ave, Waco, TX 76704, USA", "Zip": "76704", "Price_Level(Google)": 1.0, "Rating(Google)": 4.6}}
,{"type": "Feature", "geometry": {"type": "Point", "coordinates": [-97.121, 31.58]}, "properties": {"Name": "Swift P's Jkp Pizza & Deli Sandwiches", "Address": "121 Garrison St, Waco, TX 76704, USA", "Zip": "76704", "Price_Level(Google)": 0.0, "Rating(Google)": 0.0}}
,{"type": "Feature", "geometry": {"type": "Point", "coordinates": [-97.1, 31.59]}, "properties": {"Name": "Baris Express", "Address": "3125 Bellmead Dr, Bellmead, TX 76705, USA", "Zip": "76705", "Price_Level(Google)": 0.0, "Rating(Google)": 4.7}}
,{"type": "Feature", "geometry": {"type": "Point", "coordinates": [-97.109, 31.588]}, "properties": {"Name": "Chopsticks", "Address": "903 N Interstate 35 Frontage Rd #113, Bellmead, TX 76705, USA", "Zip": "76705", "Price_Level(Google)": 2.0, "Rating(Google)": 4.1}}
,{"type": "Feature", "geometry": {"type": "Point", "coordinates": [-97.128, 31.537]}, "properties": {"Name": "Schlotzsky's", "Address": "1508 N Interstate 35 Frontage Rd, Waco, TX 76706, USA", "Zip": "76706", "Price_Level(Google)": 2.0, "Rating(Google)": 4.3}}
,{"type": "Feature", "geometry": {"type": "Point", "coordinates": [-97.134, 31.526]}, "properties": {"Name": "Bubba's 33", "Address": "2601 S. Jack Kultgen Expressway, Waco, TX 76706, USA", "Zip": "76706", "Price_Level(Google)": 0.0, "Rating(Google)": 4.4}}
,{"type": "Feature", "geometry": {"type": "Point", "coordinates": [-97.125, 31.54]}, "properties": {"Name": "Terry & Jo's Food for Thought", "Address": "1121 Speight Ave, Waco, TX 76706, USA", "Zip": "76706", "Price_Level(Google)": 2.0, "Rating(Google)": 4.1}}
,{"type": "Feature", "geometry": {"type": "Point", "coordinates": [-97.116, 31.543]}, "properties": {"Name": "The Mix Cafe", "Address": "1700 S 5th St c, Waco, TX 76706, USA", "Zip": "76706", "Price_Level(Google)": 0.0, "Rating(Google)": 4.6}}
,{"type": "Feature", "geometry": {"type": "Point", "coordinates": [-97.179, 31.557]}, "properties": {"Name": "Mama Lena's Pizzas & Subs", "Address": "3315 Hillcrest Dr, Waco, TX 76708, USA", "Zip": "76708", "Price_Level(Google)": 0.0, "Rating(Google)": 3.0}}
,{"type": "Feature", "geometry": {"type": "Point", "coordinates": [-97.195, 31.563]}, "properties": {"Name": "Chuck's Pizza, Pasta & Wings", "Address": "4315 Lake Shore Dr, Waco, TX 76710, USA", "Zip": "76710", "Price_Level(Google)": 2.0, "Rating(Google)": 4.3}}
,{"type": "Feature", "geometry": {"type": "Point", "coordinates": [-97.158, 31.562]}, "properties": {"Name": "Olympic", "Address": "1901 N 18th St, Waco, TX 76707, USA", "Zip": "76707", "Price_Level(Google)": 0.0, "Rating(Google)": 4.3}}
,{"type": "Feature", "geometry": {"type": "Point", "coordinates": [-97.187, 31.516]}, "properties": {"Name": "Italia Express", "Address": "6001 W Waco Dr #109, Waco, TX 76710, United States", "Zip": "76710", "Price_Level(Google)": 0.0, "Rating(Google)": 5.0}}
,{"type": "Feature", "geometry": {"type": "Point", "coordinates": [-97.257, 31.485]}, "properties": {"Name": "Tony's Pizza Services", "Address": "22002 Woodway Dr, Woodway, TX 76712, USA", "Zip": "76712", "Price_Level(Google)": 2.0, "Rating(Google)": 0.0}}
,{"type": "Feature", "geometry": {"type": "Point", "coordinates": [-97.235, 31.629]}, "properties": {"Name": "Heaven Sent Pizza Corporation LP", "Address": "9901 China Spring Rd, Waco, TX 76708, USA", "Zip": "76708", "Price_Level(Google)": 0.0, "Rating(Google)": 0.0}}
,{"type": "Feature", "geometry": {"type": "Point", "coordinates": [-97.177, 31.53]}, "properties": {"Name": "Arby's", "Address": "723 N Valley Mills Dr, Waco, TX 76710, USA", "Zip": "76710", "Price_Level(Google)": 1.0, "Rating(Google)": 3.9}}
,{"type": "Feature", "geometry": {"type": "Point", "coordinates": [-97.151, 31.559]}, "properties": {"Name": "World Cup Cafe and Fair Trade Market", "Address": "1321 N 15th St, Waco, TX 76707, USA", "Zip": "76707", "Price_Level(Google)": 1.0, "Rating(Google)": 4.5}}
,{"type": "Feature", "geometry": {"type": "Point", "coordinates": [-97.151, 31.559]}, "properties": {"Name": "D's Mediterranean Grill", "Address": "1503 Colcord Ave, Waco, TX 76707, USA", "Zip": "76707", "Price_Level(Google)": 0.0, "Rating(Google)": 4.5}}
,{"type": "Feature", "geometry": {"type": "Point", "coordinates": [-97.124, 31.546]}, "properties": {"Name": "Westside Pizza", "Address": "Waco, TX 76706, USA", "Zip": "76706", "Price_Level(Google)": 0.0, "Rating(Google)": 0.0}}
,{"type": "Feature", "geometry": {"type": "Point", "coordinates": [-97.187, 31.515]}, "properties": {"Name": "Olive Garden Italian Restaurant", "Address": "5921 W Waco Dr, Waco, TX 76710, USA", "Zip": "76710", "Price_Level(Google)": 2.0, "Rating(Google)": 4.1}}
,{"type": "Feature", "geometry": {"type": "Point", "coordinates": [-97.137, 31.525]}, "properties": {"Name": "Chili's Grill & Bar", "Address": "1800 S Valley Mills Dr, Waco, TX 76711, USA", "Zip": "76711", "Price_Level(Google)": 1.0, "Rating(Google)": 3.9}}
,{"type": "Feature", "geometry": {"type": "Point", "coordinates": [-97.137, 31.525]}, "properties": {"Name": "Zo\u00ebs Kitchen", "Address": "1810 S Valley Mills Dr, Waco, TX 76711, USA", "Zip": "76711", "Price_Level(Google)": 0.0, "Rating(Google)": 4.3}}
,{"type": "Feature", "geometry": {"type": "Point", "coordinates": [-97.188, 31.514]}, "properties": {"Name": "Red Lobster", "Address": "5925 W Waco Dr, Waco, TX 76710, USA", "Zip": "76710", "Price_Level(Google)": 1.0, "Rating(Google)": 4.2}}
,{"type": "Feature", "geometry": {"type": "Point", "coordinates": [-97.139, 31.525]}, "properties": {"Name": "Pizza Patron", "Address": "1727 S Valley Mills Dr, Waco, TX 76711, USA", "Zip": "76711", "Price_Level(Google)": 0.0, "Rating(Google)": 4.1}}
]}