{"type": "FeatureCollection", "features": [
{"type": "Feature", "geometry": {"type": "Point", "coordinates": [-98.467, 29.5]}, "properties": {"Name": "Frederick's Restaurant", "Address": "7701 Broadway St # 20, San Antonio, TX 78209, USA", "Zip": "78209", "Price_Level(Google)": 3.0, "Rating(Google)": 4.4}}
,{"type": "Feature", "geometry": {"type": "Point", "coordinates": [-98.544, 29.574]}, "properties": {"Name": "Frederick's Bistro", "Address": "14439 NW Military Hwy #100, San Antonio, TX 78231, USA", "Zip": "78231", "Price_Level(Google)": 3.0, "Rating(Google)": 4.2}}
,{"type": "Feature", "geometry": {"type": "Point", "coordinates": [-98.487, 29.41]}, "properties": {"Name": "Bite", "Address": "1012 S Presa St, San Antonio, TX 78210, USA", "Zip": "78210", "Price_Level(Google)": 2.0, "Rating(Google)": 4.6}}
,{"type": "Feature", "geometry": {"type": "Point", "coordinates": [-98.488, 29.428]}, "properties": {"Name": "Saveurs 209", "Address": "209 Broadway St, San Antonio, TX 78205, USA", "Zip": "78205", "Price_Level(Google)": 3.0, "Rating(Google)": 4.3}}
,{"type": "Feature", "geometry": {"type": "Point", "coordinates": [-98.489, 29.416]}, "properties": {"Name": "La Frite Belgian Bistro", "Address": "728 S Alamo St, San Antonio, TX 78205, USA", "Zip": "78205", "Price_Level(Google)": 2.0, "Rating(Google)": 4.2}}
,{"type": "Feature", "geometry": {"type": "Point", "coordinates": [-98.493, 29.441]}, "properties": {"Name": "French Corner", "Address": "1303 McCullough Ave # 110, San Antonio, TX 78212, USA", "Zip": "78212", "Price_Level(Google)": 0.0, "Rating(Google)": 0.0}}
,{"type": "Feature", "geometry": {"type": "Point", "coordinates": [-98.488, 29.428]}, "properties": {"Name": "La Boulangerie", "Address": "207 Broadway St, San Antonio, TX 78205, USA", "Zip": "78205", "Price_Level(Google)": 1.0, "Rating(Google)": 4.7}}
,{"type": "Feature", "geometry": {"type": "Point", "coordinates": [-98.463, 29.471]}, "properties": {"Name": "la Madeleine French Bakery & Caf\u00e9", "Address": "4820 Broadway St, San Antonio, TX 78209, USA", "Zip": "78209", "Price_Level(Google)": 2.0, "Rating(Google)": 4.4}}
,{"type": "Feature", "geometry": {"type": "Point", "coordinates": [-98.488, 29.422]}, "properties": {"Name": "Fig Tree Restaurant", "Address": "515 Villita St, San Antonio, TX 78205, USA", "Zip": "78205", "Price_Level(Google)": 3.0, "Rating(Google)": 4.2}}
,{"type": "Feature", "geometry": {"type": "Point", "coordinates": [-98.574, 29.511]}, "properties": {"Name": "French Corner Grill", "Address": "4499 Medical Dr, San Antonio, TX 78229, USA", "Zip": "78229", "Price_Level(Google)": 0.0, "Rating(Google)": 2.5}}
,{"type": "Feature", "geometry": {"type": "Point", "coordinates": [-98.573, 29.513]}, "properties": {"Name": "French Corner", "Address": "7922 Ewing Halsell Dr # 1100, San Antonio, TX 78229, USA", "Zip": "78229", "Price_Level(Google)": 0.0, "Rating(Google)": 3.5}}
,{"type": "Feature", "geometry": {"type": "Point", "coordinates": [-98.583, 29.548]}, "properties": {"Name": "la Madeleine French Bakery & Caf\u00e9", "Address": "11745 I-10 #101, San Antonio, TX 78230, USA", "Zip": "78230", "Price_Level(Google)": 2.0, "Rating(Google)": 4.3}}
,{"type": "Feature", "geometry": {"type": "Point", "coordinates": [-98.576, 29.513]}, "properties": {"Name": "French Corner", "Address": "7950 Floyd Curl Dr, San Antonio, TX 78229, USA", "Zip": "78229", "Price_Level(Google)": 0.0, "Rating(Google)": 4.0}}
,{"type": "Feature", "geometry": {"type": "Point", "coordinates": [-98.491, 29.621]}, "properties": {"Name": "French Corner", "Address": "502 Madison Oak Dr # 170, San Antonio, TX 78258, USA", "Zip": "78258", "Price_Level(Google)": 0.0, "Rating(Google)": 5.0}}
,{"type": "Feature", "geometry": {"type": "Point", "coordinates": [-98.515, 29.574]}, "properties": {"Name": "Mimosa Restaurant and Lounge", "Address": "14415 Blanco Rd, San Antonio, TX 78216, USA", "Zip": "78216", "Price_Level(Google)": 0.0, "Rating(Google)": 4.0}}
,{"type": "Feature", "geometry": {"type": "Point", "coordinates": [-98.469, 29.605]}, "properties": {"Name": "la Madeleine French Bakery & Caf\u00e9 Northwoods", "Address": "18030 US Highway 281 N., Suite 201, San Antonio, TX 78232, United States", "Zip": "78232", "Price_Level(Google)": 2.0, "Rating(Google)": 4.2}}
,{"type": "Feature", "geometry": {"type": "Point", "coordinates": [-98.437, 29.517]}, "properties": {"Name": "French Corner", "Address": "1777 NE Interstate 410 Loop, San Antonio, TX 78217, USA", "Zip": "78217", "Price_Level(Google)": 0.0, "Rating(Google)": 0.0}}
,{"type": "Feature", "geometry": {"type": "Point", "coordinates": [-98.572, 29.519]}, "properties": {"Name": "French Sandwiches", "Address": "8448 Fredericksburg Rd, San Antonio, TX 78229, USA", "Zip": "78229", "Price_Level(Google)": 1.0, "Rating(Google)": 4.7}}
,{"type": "Feature", "geometry": {"type": "Point", "coordinates": [-98.492, 29.428]}, "properties": {"Name": "Restaurant Gwendolyn", "Address": "152 E Pecan St #100, San Antonio, TX 78205, USA", "Zip": "78205", "Price_Level(Google)": 4.0, "Rating(Google)": 4.7}}
,{"type": "Feature", "geometry": {"type": "Point", "coordinates": [-98.6, 29.605]}, "properties": {"Name": "Mimi's Cafe", "Address": "17315 Frontage Rd, San Antonio, TX 78257, USA", "Zip": "78257", "Price_Level(Google)": 2.0, "Rating(Google)": 3.7}}
,{"type": "Feature", "geometry": {"type": "Point", "coordinates": [-98.505, 29.52]}, "properties": {"Name": "la Madeleine French Bakery & Caf\u00e9", "Address": "722 NW Loop 410, San Antonio, TX 78216, USA", "Zip": "78216", "Price_Level(Google)": 2.0, "Rating(Google)": 4.1}}
,{"type": "Feature", "geometry": {"type": "Point", "coordinates": [-98.475, 29.499]}, "properties": {"Name": "Cafe Dijon", "Address": "555 E Basse Rd #113, San Antonio, TX 78209, USA", "Zip": "78209", "Price_Level(Google)": 0.0, "Rating(Google)": 4.3}}
,{"type": "Feature", "geometry": {"type": "Point", "coordinates": [-98.434, 29.506]}, "properties": {"Name": "Crumpets Restaurant & Bakery", "Address": "3920 Harry Wurzbach Rd, San Antonio, TX 78209, USA", "Zip": "78209", "Price_Level(Google)": 3.0, "Rating(Google)": 3.7}}
,{"type": "Feature", "geometry": {"type": "Point", "coordinates": [-98.491, 29.471]}, "properties": {"Name": "Chez Vatel Bistro", "Address": "218 E Olmos Dr, San Antonio, TX 78212, USA", "Zip": "78212", "Price_Level(Google)": 3.0, "Rating(Google)": 4.2}}
,{"type": "Feature", "geometry": {"type": "Point", "coordinates": [-98.572, 29.51]}, "properties": {"Name": "French Corner", "Address": "4411 Medical Dr # 190, San Antonio, TX 78229, USA", "Zip": "78229", "Price_Level(Google)": 0.0, "Rating(Google)": 4.0}}
,{"type": "Feature", "geometry": {"type": "Point", "coordinates": [-98.329, 29.565]}, "properties": {"Name": "la Madeleine French Bakery & Cafe The Forum", "Address": "8134 Agora Pkwy #100, Live Oak, TX 78154, USA", "Zip": "78154", "Price_Level(Google)": 0.0, "Rating(Google)": 4.2}}
,{"type": "Feature", "geometry": {"type": "Point", "coordinates": [-97.749, 30.266]}, "properties": {"Name": "Le Politique", "Address": "110 San Antonio St, Austin, TX 78701, USA", "Zip": "78701", "Price_Level(Google)": 3.0, "Rating(Google)": 4.3}}
,{"type": "Feature", "geometry": {"type": "Point", "coordinates": [-98.491, 29.426]}, "properties": {"Name": "Houston St. Bistro", "Address": "204 E Houston St, San Antonio, TX 78205, USA", "Zip": "78205", "Price_Level(Google)": 2.0, "Rating(Google)": 4.2}}
,{"type": "Feature", "geometry": {"type": "Point", "coordinates": [-98.64, 29.526]}, "properties": {"Name": "Spicy Ginger Asian Cafe", "Address": "8806 Bandera Rd #101, San Antonio, TX 78250, USA", "Zip": "78250", "Price_Level(Google)": 2.0, "Rating(Google)": 4.3}}
,{"type": "Feature", "geometry": {"type": "Point", "coordinates": [-98.577, 29.501]}, "properties": {"Name": "Sandwich De Paris", "Address": "7220 Louis Pasteur Dr # 142, San Antonio, TX 78229, USA", "Zip": "78229", "Price_Level(Google)": 1.0, "Rating(Google)": 4.5}}
,{"type": "Feature", "geometry": {"type": "Point", "coordinates": [-98.478, 29.444]}, "properties": {"Name": "Down On Grayson", "Address": "303 E Grayson St, San Antonio, TX 78215, USA", "Zip": "78215", "Price_Level(Google)": 2.0, "Rating(Google)": 4.2}}
,{"type": "Feature", "geometry": {"type": "Point", "coordinates": [-98.481, 29.443]}, "properties": {"Name": "Supper", "Address": "136 E Grayson St, San Antonio, TX 78215, USA", "Zip": "78215", "Price_Level(Google)": 3.0, "Rating(Google)": 4.5}}
,{"type": "Feature", "geometry": {"type": "Point", "coordinates": [-98.478, 29.445]}, "properties": {"Name": "Josephine Street", "Address": "400 E Josephine St, San Antonio, TX 78215, USA", "Zip": "78215", "Price_Level(Google)": 1.0, "Rating(Google)": 4.4}}
,{"type": "Feature", "geometry": {"type": "Point", "coordinates": [-98.478, 29.442]}, "properties": {"Name": "Earl Abel's", "Address": "1639 Broadway St, San Antonio, TX 78215, USA", "Zip": "78215", "Price_Level(Google)": 2.0, "Rating(Google)": 3.5}}
,{"type": "Feature", "geometry": {"type": "Point", "coordinates": [-98.48, 29.443]}, "properties": {"Name": "Nao", "Address": "312 Pearl Pkwy, San Antonio, TX 78215, USA", "Zip": "78215", "Price_Level(Google)": 3.0, "Rating(Google)": 4.2}}
,{"type": "Feature", "geometry": {"type": "Point", "coordinates": [-98.488, 29.434]}, "properties": {"Name": "Guillermo's", "Address": "618 McCullough Ave, San Antonio, TX 78215, USA", "Zip": "78215", "Price_Level(Google)": 2.0, "Rating(Google)": 4.4}}
,{"type": "Feature", "geometry": {"type": "Point", "coordinates": [-98.481, 29.436]}, "properties": {"Name": "The Luxury", "Address": "103 E Jones Ave, San Antonio, TX 78215, USA", "Zip": "78215", "Price_Level(Google)": 1.0, "Rating(Google)": 4.3}}
,{"type": "Feature", "geometry": {"type": "Point", "coordinates": [-98.48, 29.442]}, "properties": {"Name": "Botika", "Address": "The Pearl, 303 Pearl Pkwy #111, San Antonio, TX 78215, USA", "Zip": "78215", "Price_Level(Google)": 2.0, "Rating(Google)": 4.1}}
,{"type": "Feature", "geometry": {"type": "Point", "coordinates": [-98.48, 29.442]}, "properties": {"Name": "Cured", "Address": "306 Pearl Pkwy #101, San Antonio, TX 78215, USA", "Zip": "78215", "Price_Level(Google)": 2.0, "Rating(Google)": 4.5}}
,{"type": "Feature", "geometry": {"type": "Point", "coordinates": [-98.48, 29.443]}, "properties": {"Name": "Boiler House Texas Grill & Wine Garden", "Address": "312 Pearl Pkwy, Bldg. 3, San Antonio, TX 78215, United States", "Zip": "78215", "Price_Level(Google)": 2.0, "Rating(Google)": 4.1}}
,{"type": "Feature", "geometry": {"type": "Point", "coordinates": [-98.481, 29.443]}, "properties": {"Name": "Southerleigh Fine Food and Brewery", "Address": "136 E Grayson St #120, San Antonio, TX 78215, USA", "Zip": "78215", "Price_Level(Google)": 2.0, "Rating(Google)": 4.5}}
,{"type": "Feature", "geometry": {"type": "Point", "coordinates": [-98.484, 29.438]}, "properties": {"Name": "Caf\u00e9 des Artistes", "Address": "200 W Jones Ave, San Antonio, TX 78215, USA", "Zip": "78215", "Price_Level(Google)": 3.0, "Rating(Google)": 0.0}}
,{"type": "Feature", "geometry": {"type": "Point", "coordinates": [-98.575, 29.503]}, "properties": {"Name": "Bakery Lorraine", "Address": "7338 Louis Pasteur Dr #201, San Antonio, TX 78229, USA", "Zip": "78229", "Price_Level(Google)": 1.0, "Rating(Google)": 4.4}}
,{"type": "Feature", "geometry": {"type": "Point", "coordinates": [-98.64, 29.527]}, "properties": {"Name": "Smashin Crab", "Address": "8910 Bandera Rd #305, San Antonio, TX 78250, USA", "Zip": "78250", "Price_Level(Google)": 0.0, "Rating(Google)": 4.4}}
,{"type": "Feature", "geometry": {"type": "Point", "coordinates": [-98.616, 29.382]}, "properties": {"Name": "Arby's", "Address": "2180 Reese, San Antonio, TX 78236, USA", "Zip": "78236", "Price_Level(Google)": 1.0, "Rating(Google)": 4.0}}
,{"type": "Feature", "geometry": {"type": "Point", "coordinates": [-98.63, 29.393]}, "properties": {"Name": "Burger King", "Address": "1530 Femoyer St, Lackland AFB, TX 78236, USA", "Zip": "78236", "Price_Level(Google)": 1.0, "Rating(Google)": 3.7}}
,{"type": "Feature", "geometry": {"type": "Point", "coordinates": [-98.626, 29.382]}, "properties": {"Name": "Arby's", "Address": "1421 Stewart, Jbsa Lackland, TX 78236, USA", "Zip": "78236", "Price_Level(Google)": 1.0, "Rating(Google)": 0.0}}
,{"type": "Feature", "geometry": {"type": "Point", "coordinates": [-98.594, 29.383]}, "properties": {"Name": "Burger King", "Address": "Oscar Westover Rd, Building 1286, Lackland Afb, TX 78236, United States", "Zip": "78236", "Price_Level(Google)": 1.0, "Rating(Google)": 3.5}}
,{"type": "Feature", "geometry": {"type": "Point", "coordinates": [-98.52, 29.608]}, "properties": {"Name": "Brasserie Pavil Restaurant & Bar", "Address": "1818 North Loop 1604 W, San Antonio, TX 78248, USA", "Zip": "78248", "Price_Level(Google)": 0.0, "Rating(Google)": 3.4}}
,{"type": "Feature", "geometry": {"type": "Point", "coordinates": [-98.619, 29.599]}, "properties": {"Name": "Signature", "Address": "16401 La Cantera Pkwy, San Antonio, TX 78256, USA", "Zip": "78256", "Price_Level(Google)": 3.0, "Rating(Google)": 4.6}}
]}