{"type": "FeatureCollection", "features": [
{"type": "Feature", "geometry": {"type": "Point", "coordinates": [-97.762, 30.227]}, "properties": {"Name": "Papalote Taco House", "Address": "3632 S Congress Ave, Austin, TX 78704, USA", "Zip": "78704", "Price_Level(Google)": 0.0, "Rating(Google)": 4.5}}
,{"type": "Feature", "geometry": {"type": "Point", "coordinates": [-97.749, 30.237]}, "properties": {"Name": "Con Madre Kitchen", "Address": "628 E Oltorf St, Austin, TX 78704, USA", "Zip": "78704", "Price_Level(Google)": 0.0, "Rating(Google)": 4.6}}
,{"type": "Feature", "geometry": {"type": "Point", "coordinates": [-97.763, 30.227]}, "properties": {"Name": "Pueblo Viejo Taco Truck", "Address": "121 Pickle Rd, Austin, TX 78704, USA", "Zip": "78704", "Price_Level(Google)": 0.0, "Rating(Google)": 4.8}}
,{"type": "Feature", "geometry": {"type": "Point", "coordinates": [-97.768, 30.215]}, "properties": {"Name": "San Juanita's Tacos", "Address": "4619 S Congress Ave, Austin, TX 78745, USA", "Zip": "78745", "Price_Level(Google)": 0.0, "Rating(Google)": 4.3}}
,{"type": "Feature", "geometry": {"type": "Point", "coordinates": [-97.76, 30.242]}, "properties": {"Name": "El Tacorrido", "Address": "2316 S 1st St, Austin, TX 78704, USA", "Zip": "78704", "Price_Level(Google)": 0.0, "Rating(Google)": 4.2}}
,{"type": "Feature", "geometry": {"type": "Point", "coordinates": [-97.753, 30.238]}, "properties": {"Name": "Taco Bell", "Address": "201 E Oltorf St, Austin, TX 78704, USA", "Zip": "78704", "Price_Level(Google)": 1.0, "Rating(Google)": 3.5}}
,{"type": "Feature", "geometry": {"type": "Point", "coordinates": [-97.763, 30.237]}, "properties": {"Name": "Torchy's Tacos", "Address": "2809 S 1st St, Austin, TX 78704, USA", "Zip": "78704", "Price_Level(Google)": 1.0, "Rating(Google)": 4.5}}
,{"type": "Feature", "geometry": {"type": "Point", "coordinates": [-97.752, 30.245]}, "properties": {"Name": "Torchy's Tacos", "Address": "1822 S Congress Ave, Austin, TX 78704, USA", "Zip": "78704", "Price_Level(Google)": 0.0, "Rating(Google)": 4.5}}
,{"type": "Feature", "geometry": {"type": "Point", "coordinates": [-97.724, 30.234]}, "properties": {"Name": "Taco Cabana", "Address": "2507 E Riverside Dr, Austin, TX 78741, USA", "Zip": "78741", "Price_Level(Google)": 1.0, "Rating(Google)": 3.0}}
,{"type": "Feature", "geometry": {"type": "Point", "coordinates": [-97.725, 30.238]}, "properties": {"Name": "Taco Bell", "Address": "2308 E Riverside Dr, Austin, TX 78741, USA", "Zip": "78741", "Price_Level(Google)": 1.0, "Rating(Google)": 3.7}}
,{"type": "Feature", "geometry": {"type": "Point", "coordinates": [-97.75, 30.249]}, "properties": {"Name": "G\u00fcero's", "Address": "1412 S Congress Ave, Austin, TX 78704, USA", "Zip": "78704", "Price_Level(Google)": 2.0, "Rating(Google)": 3.9}}
,{"type": "Feature", "geometry": {"type": "Point", "coordinates": [-97.755, 30.249]}, "properties": {"Name": "Mellizoz Tacos", "Address": "1503 S 1st St, Austin, TX 78704, USA", "Zip": "78704", "Price_Level(Google)": 1.0, "Rating(Google)": 4.2}}
,{"type": "Feature", "geometry": {"type": "Point", "coordinates": [-97.754, 30.251]}, "properties": {"Name": "Torchy's Tacos", "Address": "1311 S 1st St, Austin, TX 78704, USA", "Zip": "78704", "Price_Level(Google)": 1.0, "Rating(Google)": 4.6}}
,{"type": "Feature", "geometry": {"type": "Point", "coordinates": [-97.785, 30.228]}, "properties": {"Name": "Taco Bell", "Address": "1701 W Ben White Blvd, Austin, TX 78704, USA", "Zip": "78704", "Price_Level(Google)": 1.0, "Rating(Google)": 2.8}}
,{"type": "Feature", "geometry": {"type": "Point", "coordinates": [-97.778, 30.246]}, "properties": {"Name": "Maria's Taco Xpress", "Address": "2529 S Lamar Blvd, Austin, TX 78704, USA", "Zip": "78704", "Price_Level(Google)": 1.0, "Rating(Google)": 4.2}}
,{"type": "Feature", "geometry": {"type": "Point", "coordinates": [-97.769, 30.191]}, "properties": {"Name": "Taco Bell", "Address": "6511 S IH 35 Frontage Rd, Austin, TX 78744, USA", "Zip": "78744", "Price_Level(Google)": 1.0, "Rating(Google)": 3.3}}
,{"type": "Feature", "geometry": {"type": "Point", "coordinates": [-97.771, 30.191]}, "properties": {"Name": "Taco Cabana", "Address": "6430 S IH 35 Frontage Rd, Austin, TX 78745, USA", "Zip": "78745", "Price_Level(Google)": 1.0, "Rating(Google)": 3.6}}
,{"type": "Feature", "geometry": {"type": "Point", "coordinates": [-97.782, 30.244]}, "properties": {"Name": "Papalote Taco House", "Address": "2803 S Lamar Blvd, Austin, TX 78704, USA", "Zip": "78704", "Price_Level(Google)": 1.0, "Rating(Google)": 4.6}}
,{"type": "Feature", "geometry": {"type": "Point", "coordinates": [-97.784, 30.242]}, "properties": {"Name": "Torchy's Tacos", "Address": "3005 S Lamar Blvd, Austin, TX 78704, USA", "Zip": "78704", "Price_Level(Google)": 1.0, "Rating(Google)": 4.5}}
,{"type": "Feature", "geometry": {"type": "Point", "coordinates": [-97.791, 30.231]}, "properties": {"Name": "Taco Cabana", "Address": "2117 W Ben White Blvd, Austin, TX 78704, USA", "Zip": "78704", "Price_Level(Google)": 1.0, "Rating(Google)": 3.5}}
,{"type": "Feature", "geometry": {"type": "Point", "coordinates": [-97.757, 30.221]}, "properties": {"Name": "Cabo Bob's", "Address": "500 E Ben White Blvd D-100, Austin, TX 78704, USA", "Zip": "78704", "Price_Level(Google)": 2.0, "Rating(Google)": 4.6}}
,{"type": "Feature", "geometry": {"type": "Point", "coordinates": [-97.738, 30.261]}, "properties": {"Name": "Taco Baby", "Address": "96 Rainey St, Austin, TX 78701, USA", "Zip": "78701", "Price_Level(Google)": 0.0, "Rating(Google)": 4.5}}
,{"type": "Feature", "geometry": {"type": "Point", "coordinates": [-97.786, 30.197]}, "properties": {"Name": "Taco Bell", "Address": "502 W William Cannon Dr, Austin, TX 78745, USA", "Zip": "78745", "Price_Level(Google)": 1.0, "Rating(Google)": 3.1}}
,{"type": "Feature", "geometry": {"type": "Point", "coordinates": [-97.738, 30.265]}, "properties": {"Name": "Austin Taco Project", "Address": "500 E 4th St, Austin, TX 78701, USA", "Zip": "78701", "Price_Level(Google)": 2.0, "Rating(Google)": 3.9}}
,{"type": "Feature", "geometry": {"type": "Point", "coordinates": [-97.742, 30.266]}, "properties": {"Name": "Taco Shack", "Address": "402 Brazos St, Austin, TX 78701, USA", "Zip": "78701", "Price_Level(Google)": 1.0, "Rating(Google)": 3.7}}
,{"type": "Feature", "geometry": {"type": "Point", "coordinates": [-97.748, 30.27]}, "properties": {"Name": "OneTaco", "Address": "Little Woodrow's, 520 W 6th St, Austin, TX 78701, USA", "Zip": "78701", "Price_Level(Google)": 2.0, "Rating(Google)": 4.2}}
,{"type": "Feature", "geometry": {"type": "Point", "coordinates": [-97.788, 30.258]}, "properties": {"Name": "Tacodeli", "Address": "1500 Spyglass Dr, Austin, TX 78746, USA", "Zip": "78746", "Price_Level(Google)": 1.0, "Rating(Google)": 4.6}}
,{"type": "Feature", "geometry": {"type": "Point", "coordinates": [-97.742, 30.283]}, "properties": {"Name": "Taco Bell", "Address": "2000 Guadalupe St, Austin, TX 78705, USA", "Zip": "78705", "Price_Level(Google)": 1.0, "Rating(Google)": 3.8}}
,{"type": "Feature", "geometry": {"type": "Point", "coordinates": [-97.736, 30.285]}, "properties": {"Name": "Taco Cabana", "Address": "2201 Speedway, Austin, TX 78712, USA", "Zip": "78712", "Price_Level(Google)": 1.0, "Rating(Google)": 2.9}}
,{"type": "Feature", "geometry": {"type": "Point", "coordinates": [-97.792, 30.166]}, "properties": {"Name": "Taco Bell", "Address": "161 W Slaughter Ln, #C, Austin, TX 78748, United States", "Zip": "78748", "Price_Level(Google)": 1.0, "Rating(Google)": 2.8}}
,{"type": "Feature", "geometry": {"type": "Point", "coordinates": [-97.8, 30.274]}, "properties": {"Name": "Taco Bell", "Address": "3201 Bee Caves Rd Ste 180, Austin, TX 78746, USA", "Zip": "78746", "Price_Level(Google)": 1.0, "Rating(Google)": 3.4}}
,{"type": "Feature", "geometry": {"type": "Point", "coordinates": [-97.735, 30.292]}, "properties": {"Name": "Taco Joint", "Address": "2807 San Jacinto Blvd, Austin, TX 78712, USA", "Zip": "78712", "Price_Level(Google)": 0.0, "Rating(Google)": 4.6}}
,{"type": "Feature", "geometry": {"type": "Point", "coordinates": [-97.742, 30.294]}, "properties": {"Name": "Torchy's Tacos", "Address": "2801 Guadalupe St, St 5-b, Austin, TX 78705, United States", "Zip": "78705", "Price_Level(Google)": 1.0, "Rating(Google)": 4.4}}
,{"type": "Feature", "geometry": {"type": "Point", "coordinates": [-97.83, 30.213]}, "properties": {"Name": "Taco Bell", "Address": "3421 W William Cannon Dr, Austin, TX 78745, USA", "Zip": "78745", "Price_Level(Google)": 1.0, "Rating(Google)": 3.1}}
,{"type": "Feature", "geometry": {"type": "Point", "coordinates": [-97.704, 30.283]}, "properties": {"Name": "Taco Bell", "Address": "1925 Airport Blvd, Austin, TX 78722, USA", "Zip": "78722", "Price_Level(Google)": 1.0, "Rating(Google)": 3.5}}
,{"type": "Feature", "geometry": {"type": "Point", "coordinates": [-97.794, 30.154]}, "properties": {"Name": "Amaya's Taco Village", "Address": "9900 S Interstate 35 Frontage Rd. #100, Austin, TX 78748, USA", "Zip": "78748", "Price_Level(Google)": 1.0, "Rating(Google)": 4.0}}
,{"type": "Feature", "geometry": {"type": "Point", "coordinates": [-97.84, 30.222]}, "properties": {"Name": "Torchy's Tacos", "Address": "4301 W. William Cannon Dr, G-400, Austin, TX 78749, United States", "Zip": "78749", "Price_Level(Google)": 1.0, "Rating(Google)": 4.4}}
,{"type": "Feature", "geometry": {"type": "Point", "coordinates": [-97.742, 30.308]}, "properties": {"Name": "Taco Shack", "Address": "4002 N Lamar Blvd, Austin, TX 78756, USA", "Zip": "78756", "Price_Level(Google)": 1.0, "Rating(Google)": 3.8}}
,{"type": "Feature", "geometry": {"type": "Point", "coordinates": [-97.74, 30.311]}, "properties": {"Name": "Tacodeli", "Address": "4200 N Lamar Blvd, Austin, TX 78756, USA", "Zip": "78756", "Price_Level(Google)": 1.0, "Rating(Google)": 4.6}}
,{"type": "Feature", "geometry": {"type": "Point", "coordinates": [-97.699, 30.303]}, "properties": {"Name": "Torchy's Tacos", "Address": "1801 E. 51st St, Bldg D, Austin, TX 78723, United States", "Zip": "78723", "Price_Level(Google)": 1.0, "Rating(Google)": 4.5}}
,{"type": "Feature", "geometry": {"type": "Point", "coordinates": [-97.772, 30.222]}, "properties": {"Name": "Casa Maria", "Address": "4327 S 1st St # 102, Austin, TX 78745, USA", "Zip": "78745", "Price_Level(Google)": 2.0, "Rating(Google)": 4.1}}
,{"type": "Feature", "geometry": {"type": "Point", "coordinates": [-97.715, 30.31]}, "properties": {"Name": "Tyson's Tacos", "Address": "4905 Airport Blvd, Austin, TX 78751, USA", "Zip": "78751", "Price_Level(Google)": 0.0, "Rating(Google)": 4.5}}
,{"type": "Feature", "geometry": {"type": "Point", "coordinates": [-97.742, 30.315]}, "properties": {"Name": "Taco Shack", "Address": "4412 Medical Pkwy, Austin, TX 78756, USA", "Zip": "78756", "Price_Level(Google)": 1.0, "Rating(Google)": 3.8}}
,{"type": "Feature", "geometry": {"type": "Point", "coordinates": [-97.847, 30.183]}, "properties": {"Name": "Taco Bell", "Address": "3324 W Slaughter Ln, Austin, TX 78748, USA", "Zip": "78748", "Price_Level(Google)": 1.0, "Rating(Google)": 3.3}}
,{"type": "Feature", "geometry": {"type": "Point", "coordinates": [-97.826, 30.29]}, "properties": {"Name": "Tacodeli", "Address": "701 South Capital of Texas Highway #e590, Austin, TX 78746, United States", "Zip": "78746", "Price_Level(Google)": 1.0, "Rating(Google)": 4.5}}
,{"type": "Feature", "geometry": {"type": "Point", "coordinates": [-97.704, 30.314]}, "properties": {"Name": "Taco Bell", "Address": "5604 Cameron Rd, Austin, TX 78723, USA", "Zip": "78723", "Price_Level(Google)": 1.0, "Rating(Google)": 3.2}}
,{"type": "Feature", "geometry": {"type": "Point", "coordinates": [-97.708, 30.319]}, "properties": {"Name": "Amaya's Taco Village", "Address": "5804 N Interstate 35 Frontage Rd, Austin, TX 78751, USA", "Zip": "78751", "Price_Level(Google)": 1.0, "Rating(Google)": 4.2}}
,{"type": "Feature", "geometry": {"type": "Point", "coordinates": [-97.74, 30.331]}, "properties": {"Name": "Taco Flats", "Address": "5520 Burnet Rd #101, Austin, TX 78756, USA", "Zip": "78756", "Price_Level(Google)": 1.0, "Rating(Google)": 4.5}}
,{"type": "Feature", "geometry": {"type": "Point", "coordinates": [-97.719, 30.339]}, "properties": {"Name": "Fuzzy's Taco Shop", "Address": "7010 Easy Wind Dr #100, Austin, TX 78752, USA", "Zip": "78752", "Price_Level(Google)": 0.0, "Rating(Google)": 4.0}}
,{"type": "Feature", "geometry": {"type": "Point", "coordinates": [-97.735, 30.349]}, "properties": {"Name": "Tacodeli", "Address": "7301 Burnet Rd, Austin, TX 78757, USA", "Zip": "78757", "Price_Level(Google)": 1.0, "Rating(Google)": 4.6}}
,{"type": "Feature", "geometry": {"type": "Point", "coordinates": [-97.75, 30.365]}, "properties": {"Name": "Taco Shack", "Address": "3901 Spicewood Springs Rd, Austin, TX 78759, USA", "Zip": "78759", "Price_Level(Google)": 1.0, "Rating(Google)": 4.2}}
,{"type": "Feature", "geometry": {"type": "Point", "coordinates": [-97.713, 30.408]}, "properties": {"Name": "Tacodeli", "Address": "12001 Burnet Rd, Austin, TX 78758, USA", "Zip": "78758", "Price_Level(Google)": 1.0, "Rating(Google)": 4.6}}
,{"type": "Feature", "geometry": {"type": "Point", "coordinates": [-97.691, 30.412]}, "properties": {"Name": "Taco Shack", "Address": "12439 Metric Blvd, Austin, TX 78758, USA", "Zip": "78758", "Price_Level(Google)": 1.0, "Rating(Google)": 3.7}}
,{"type": "Feature", "geometry": {"type": "Point", "coordinates": [-97.731, 30.354]}, "properties": {"Name": "Taco Bell", "Address": "7793 Burnet Rd, Austin, TX 78757, USA", "Zip": "78757", "Price_Level(Google)": 1.0, "Rating(Google)": 3.3}}
,{"type": "Feature", "geometry": {"type": "Point", "coordinates": [-97.694, 30.337]}, "properties": {"Name": "Taco Bell", "Address": "1016 E Anderson Ln, Austin, TX 78752, USA", "Zip": "78752", "Price_Level(Google)": 1.0, "Rating(Google)": 3.6}}
,{"type": "Feature", "geometry": {"type": "Point", "coordinates": [-97.761, 30.273]}, "properties": {"Name": "TNT Tacos and Tequila", "Address": "507 Pressler St, Austin, TX 78703, USA", "Zip": "78703", "Price_Level(Google)": 0.0, "Rating(Google)": 4.0}}
,{"type": "Feature", "geometry": {"type": "Point", "coordinates": [-97.739, 30.258]}, "properties": {"Name": "Art of Tacos", "Address": "75 Rainey St, Austin, TX 78701, USA", "Zip": "78701", "Price_Level(Google)": 0.0, "Rating(Google)": 4.1}}
,{"type": "Feature", "geometry": {"type": "Point", "coordinates": [-97.697, 30.365]}, "properties": {"Name": "Taco Bell", "Address": "9504 N Lamar Blvd, Austin, TX 78753, USA", "Zip": "78753", "Price_Level(Google)": 1.0, "Rating(Google)": 3.6}}
,{"type": "Feature", "geometry": {"type": "Point", "coordinates": [-97.718, 30.284]}, "properties": {"Name": "El Chilito", "Address": "2219 Manor Rd, Austin, TX 78722, USA", "Zip": "78722", "Price_Level(Google)": 1.0, "Rating(Google)": 4.1}}
,{"type": "Feature", "geometry": {"type": "Point", "coordinates": [-97.715, 30.285]}, "properties": {"Name": "Taco Mex", "Address": "2611 Manor Rd, Austin, TX 78722, USA", "Zip": "78722", "Price_Level(Google)": 1.0, "Rating(Google)": 4.4}}
,{"type": "Feature", "geometry": {"type": "Point", "coordinates": [-97.726, 30.258]}, "properties": {"Name": "Veracruz All Natural Food Truck", "Address": "1704 E Cesar Chavez St, Austin, TX 78702, USA", "Zip": "78702", "Price_Level(Google)": 1.0, "Rating(Google)": 4.7}}
,{"type": "Feature", "geometry": {"type": "Point", "coordinates": [-97.824, 30.233]}, "properties": {"Name": "Taco Ranch", "Address": "5033 W US Hwy 290 Service Rd, Austin, TX 78746, USA", "Zip": "78746", "Price_Level(Google)": 1.0, "Rating(Google)": 3.4}}
,{"type": "Feature", "geometry": {"type": "Point", "coordinates": [-97.739, 30.323]}, "properties": {"Name": "Torchy's Tacos", "Address": "5119 Burnet Rd, Austin, TX 78756, USA", "Zip": "78756", "Price_Level(Google)": 1.0, "Rating(Google)": 4.6}}
,{"type": "Feature", "geometry": {"type": "Point", "coordinates": [-97.727, 30.268]}, "properties": {"Name": "Juana Taco", "Address": "1207 E 11th St, Austin, TX 78702, USA", "Zip": "78702", "Price_Level(Google)": 0.0, "Rating(Google)": 3.8}}
,{"type": "Feature", "geometry": {"type": "Point", "coordinates": [-97.744, 30.283]}, "properties": {"Name": "Kesos Taco House", "Address": "600 W Martin Luther King Jr Blvd, Austin, TX 78705, USA", "Zip": "78705", "Price_Level(Google)": 0.0, "Rating(Google)": 4.3}}
,{"type": "Feature", "geometry": {"type": "Point", "coordinates": [-97.719, 30.284]}, "properties": {"Name": "Mi Madre's Restaurant", "Address": "2201 Manor Rd, Austin, TX 78722, USA", "Zip": "78722", "Price_Level(Google)": 2.0, "Rating(Google)": 4.2}}
,{"type": "Feature", "geometry": {"type": "Point", "coordinates": [-97.727, 30.263]}, "properties": {"Name": "Bomb Tacos", "Address": "500 Comal St, Austin, TX 78702, USA", "Zip": "78702", "Price_Level(Google)": 0.0, "Rating(Google)": 3.2}}
,{"type": "Feature", "geometry": {"type": "Point", "coordinates": [-97.732, 30.26]}, "properties": {"Name": "Las Trancas Taco Stand", "Address": "1210 E Cesar Chavez St, Austin, TX 78702, USA", "Zip": "78702", "Price_Level(Google)": 0.0, "Rating(Google)": 4.7}}
,{"type": "Feature", "geometry": {"type": "Point", "coordinates": [-97.777, 30.247]}, "properties": {"Name": "Capital TACO", "Address": "2323 S Lamar Blvd, Austin, TX 78704, USA", "Zip": "78704", "Price_Level(Google)": 0.0, "Rating(Google)": 4.3}}
,{"type": "Feature", "geometry": {"type": "Point", "coordinates": [-97.734, 30.265]}, "properties": {"Name": "Pueblo Viejo", "Address": "502 Brushy St, Austin, TX 78702, USA", "Zip": "78702", "Price_Level(Google)": 2.0, "Rating(Google)": 4.7}}
,{"type": "Feature", "geometry": {"type": "Point", "coordinates": [-97.706, 30.368]}, "properties": {"Name": "Taco More", "Address": "9414 Parkfield Dr, Austin, TX 78758, USA", "Zip": "78758", "Price_Level(Google)": 1.0, "Rating(Google)": 4.1}}
,{"type": "Feature", "geometry": {"type": "Point", "coordinates": [-97.73, 30.321]}, "properties": {"Name": "Taco Cabana", "Address": "5242 N Lamar Blvd, Austin, TX 78751, USA", "Zip": "78751", "Price_Level(Google)": 1.0, "Rating(Google)": 3.7}}
,{"type": "Feature", "geometry": {"type": "Point", "coordinates": [-97.728, 30.24]}, "properties": {"Name": "Taco More", "Address": "2015 E Riverside Dr., Austin, TX 78741, USA", "Zip": "78741", "Price_Level(Google)": 1.0, "Rating(Google)": 4.1}}
,{"type": "Feature", "geometry": {"type": "Point", "coordinates": [-97.806, 30.203]}, "properties": {"Name": "Jalape\u00f1os", "Address": "1940 W William Cannon Dr, Austin, TX 78745, USA", "Zip": "78745", "Price_Level(Google)": 0.0, "Rating(Google)": 4.1}}
,{"type": "Feature", "geometry": {"type": "Point", "coordinates": [-97.719, 30.255]}, "properties": {"Name": "Juan in a Million", "Address": "2300 E Cesar Chavez St, Austin, TX 78702, USA", "Zip": "78702", "Price_Level(Google)": 2.0, "Rating(Google)": 4.4}}
,{"type": "Feature", "geometry": {"type": "Point", "coordinates": [-97.704, 30.263]}, "properties": {"Name": "Marcelino Pan y Vino", "Address": "901 Tillery St, Austin, TX 78702, USA", "Zip": "78702", "Price_Level(Google)": 0.0, "Rating(Google)": 4.7}}
,{"type": "Feature", "geometry": {"type": "Point", "coordinates": [-97.727, 30.264]}, "properties": {"Name": "Takoba", "Address": "1411 E 7th St, Austin, TX 78702, USA", "Zip": "78702", "Price_Level(Google)": 2.0, "Rating(Google)": 4.1}}
,{"type": "Feature", "geometry": {"type": "Point", "coordinates": [-97.727, 30.263]}, "properties": {"Name": "Cisco's Restaurant", "Address": "1511 E 6th St, Austin, TX 78702, USA", "Zip": "78702", "Price_Level(Google)": 1.0, "Rating(Google)": 4.3}}
,{"type": "Feature", "geometry": {"type": "Point", "coordinates": [-97.724, 30.262]}, "properties": {"Name": "Tamale House East", "Address": "1707 E 6th St, Austin, TX 78702, USA", "Zip": "78702", "Price_Level(Google)": 2.0, "Rating(Google)": 4.3}}
,{"type": "Feature", "geometry": {"type": "Point", "coordinates": [-97.724, 30.263]}, "properties": {"Name": "El Chilito", "Address": "1623 E 7th St, Austin, TX 78702, USA", "Zip": "78702", "Price_Level(Google)": 1.0, "Rating(Google)": 4.0}}
,{"type": "Feature", "geometry": {"type": "Point", "coordinates": [-97.702, 30.257]}, "properties": {"Name": "Beto's Restaurants", "Address": "3518 E 7th St, Austin, TX 78702, USA", "Zip": "78702", "Price_Level(Google)": 0.0, "Rating(Google)": 4.4}}
,{"type": "Feature", "geometry": {"type": "Point", "coordinates": [-97.698, 30.261]}, "properties": {"Name": "Papa Joe's Tex-Mex", "Address": "917 Springdale Rd, Austin, TX 78702, USA", "Zip": "78702", "Price_Level(Google)": 0.0, "Rating(Google)": 4.7}}
,{"type": "Feature", "geometry": {"type": "Point", "coordinates": [-97.728, 30.264]}, "properties": {"Name": "Granny's Tacos", "Address": "1401 E 7th St, Austin, TX 78702, USA", "Zip": "78702", "Price_Level(Google)": 0.0, "Rating(Google)": 4.9}}
,{"type": "Feature", "geometry": {"type": "Point", "coordinates": [-97.713, 30.253]}, "properties": {"Name": "Tacos Guerrero", "Address": "96 N Pleasant Valley Rd, Austin, TX 78702, USA", "Zip": "78702", "Price_Level(Google)": 0.0, "Rating(Google)": 4.9}}
,{"type": "Feature", "geometry": {"type": "Point", "coordinates": [-97.722, 30.256]}, "properties": {"Name": "Taqueria Chapala", "Address": "2101 E Cesar Chavez St, Austin, TX 78702, USA", "Zip": "78702", "Price_Level(Google)": 2.0, "Rating(Google)": 4.2}}
,{"type": "Feature", "geometry": {"type": "Point", "coordinates": [-97.723, 30.262]}, "properties": {"Name": "6th Street Tacos y Mas", "Address": "1816 E 6th St, Austin, TX 78702, USA", "Zip": "78702", "Price_Level(Google)": 0.0, "Rating(Google)": 4.0}}
,{"type": "Feature", "geometry": {"type": "Point", "coordinates": [-97.727, 30.263]}, "properties": {"Name": "Little Plaza Taco Truck", "Address": "1501 E 6th St, Austin, TX 78702, USA", "Zip": "78702", "Price_Level(Google)": 0.0, "Rating(Google)": 5.0}}
,{"type": "Feature", "geometry": {"type": "Point", "coordinates": [-97.728, 30.258]}, "properties": {"Name": "Los Huaraches", "Address": "1628 E Cesar Chavez St, Austin, TX 78702, USA", "Zip": "78702", "Price_Level(Google)": 0.0, "Rating(Google)": 3.9}}
,{"type": "Feature", "geometry": {"type": "Point", "coordinates": [-97.718, 30.255]}, "properties": {"Name": "The Vegan Nom", "Address": "2324 E Cesar Chavez St, Austin, TX 78702, USA", "Zip": "78702", "Price_Level(Google)": 0.0, "Rating(Google)": 4.6}}
,{"type": "Feature", "geometry": {"type": "Point", "coordinates": [-97.717, 30.261]}, "properties": {"Name": "Joe\u2019s Bakery & Coffee Shop", "Address": "2305 E 7th St, Austin, TX 78702, USA", "Zip": "78702", "Price_Level(Google)": 1.0, "Rating(Google)": 4.5}}
,{"type": "Feature", "geometry": {"type": "Point", "coordinates": [-97.714, 30.261]}, "properties": {"Name": "Tacos Y Mariscos", "Address": "2410 E 7th St, Austin, TX 78702, USA", "Zip": "78702", "Price_Level(Google)": 0.0, "Rating(Google)": 4.7}}
,{"type": "Feature", "geometry": {"type": "Point", "coordinates": [-97.727, 30.258]}, "properties": {"Name": "Las Cazuelas Mexican Restaurant", "Address": "1701 E Cesar Chavez St, Austin, TX 78702, USA", "Zip": "78702", "Price_Level(Google)": 2.0, "Rating(Google)": 3.7}}
,{"type": "Feature", "geometry": {"type": "Point", "coordinates": [-97.719, 30.262]}, "properties": {"Name": "Tacos Do\u00f1a rosita", "Address": "2012 E 7th St, Austin, TX 78702, USA", "Zip": "78702", "Price_Level(Google)": 0.0, "Rating(Google)": 5.0}}
,{"type": "Feature", "geometry": {"type": "Point", "coordinates": [-97.729, 30.264]}, "properties": {"Name": "Angie's", "Address": "1307 E 7th St, Austin, TX 78702, USA", "Zip": "78702", "Price_Level(Google)": 0.0, "Rating(Google)": 3.9}}
,{"type": "Feature", "geometry": {"type": "Point", "coordinates": [-97.714, 30.263]}, "properties": {"Name": "Chico Jr's Deluxe Taco Emporium", "Address": "2421 Webberville Rd, Austin, TX 78702, USA", "Zip": "78702", "Price_Level(Google)": 0.0, "Rating(Google)": 4.6}}
,{"type": "Feature", "geometry": {"type": "Point", "coordinates": [-97.725, 30.264]}, "properties": {"Name": "Nasha", "Address": "1614 E 7th St, Austin, TX 78702, USA", "Zip": "78702", "Price_Level(Google)": 1.0, "Rating(Google)": 4.1}}
,{"type": "Feature", "geometry": {"type": "Point", "coordinates": [-97.714, 30.259]}, "properties": {"Name": "Taco Flats Airstream", "Address": "2500 E 6th Street B, Austin, TX 78702, United States", "Zip": "78702", "Price_Level(Google)": 0.0, "Rating(Google)": 0.0}}
,{"type": "Feature", "geometry": {"type": "Point", "coordinates": [-97.728, 30.269]}, "properties": {"Name": "Cosmic Taco", "Address": "1106 E 11th St, Austin, TX 78702, USA", "Zip": "78702", "Price_Level(Google)": 0.0, "Rating(Google)": 5.0}}
,{"type": "Feature", "geometry": {"type": "Point", "coordinates": [-97.729, 30.264]}, "properties": {"Name": "Licha's Cantina", "Address": "1306 E 6th St, Austin, TX 78702, USA", "Zip": "78702", "Price_Level(Google)": 2.0, "Rating(Google)": 4.5}}
,{"type": "Feature", "geometry": {"type": "Point", "coordinates": [-97.725, 30.262]}, "properties": {"Name": "Hot Mess", "Address": "1701 E 6th St, Austin, TX 78702, USA", "Zip": "78702", "Price_Level(Google)": 0.0, "Rating(Google)": 5.0}}
,{"type": "Feature", "geometry": {"type": "Point", "coordinates": [-97.734, 30.265]}, "properties": {"Name": "Savor De Moi", "Address": "517 N Interstate Hwy 35, Austin, TX 78702, USA", "Zip": "78702", "Price_Level(Google)": 0.0, "Rating(Google)": 5.0}}
,{"type": "Feature", "geometry": {"type": "Point", "coordinates": [-97.713, 30.253]}, "properties": {"Name": "Taqueria San Luis", "Address": "2730 E Cesar Chavez St, Austin, TX 78702, USA", "Zip": "78702", "Price_Level(Google)": 0.0, "Rating(Google)": 4.8}}
,{"type": "Feature", "geometry": {"type": "Point", "coordinates": [-97.719, 30.26]}, "properties": {"Name": "Hi Hat Public House", "Address": "2121 E 6th St, Austin, TX 78702, USA", "Zip": "78702", "Price_Level(Google)": 0.0, "Rating(Google)": 4.6}}
,{"type": "Feature", "geometry": {"type": "Point", "coordinates": [-97.693, 30.254]}, "properties": {"Name": "Taco Stand", "Address": "750 Airport Blvd, Austin, TX 78702, USA", "Zip": "78702", "Price_Level(Google)": 0.0, "Rating(Google)": 0.0}}
,{"type": "Feature", "geometry": {"type": "Point", "coordinates": [-97.728, 30.264]}, "properties": {"Name": "Revelry Kitchen + Bar", "Address": "1410 E 6th St, Austin, TX 78702, USA", "Zip": "78702", "Price_Level(Google)": 2.0, "Rating(Google)": 4.5}}
,{"type": "Feature", "geometry": {"type": "Point", "coordinates": [-97.694, 30.258]}, "properties": {"Name": "Dan's Hamburgers", "Address": "844 Airport Blvd, Austin, TX 78702, USA", "Zip": "78702", "Price_Level(Google)": 0.0, "Rating(Google)": 4.5}}
,{"type": "Feature", "geometry": {"type": "Point", "coordinates": [-97.705, 30.258]}, "properties": {"Name": "Chu-Mikal's Cafe", "Address": "3223 E 7th St, Austin, TX 78702, USA", "Zip": "78702", "Price_Level(Google)": 0.0, "Rating(Google)": 4.4}}
,{"type": "Feature", "geometry": {"type": "Point", "coordinates": [-97.725, 30.263]}, "properties": {"Name": "East Side King", "Address": "1618 E 6th St, Austin, TX 78702, USA", "Zip": "78702", "Price_Level(Google)": 2.0, "Rating(Google)": 4.4}}
,{"type": "Feature", "geometry": {"type": "Point", "coordinates": [-97.708, 30.252]}, "properties": {"Name": "Grizzelda's", "Address": "105 Tillery St, Austin, TX 78702, USA", "Zip": "78702", "Price_Level(Google)": 2.0, "Rating(Google)": 4.2}}
,{"type": "Feature", "geometry": {"type": "Point", "coordinates": [-97.713, 30.253]}, "properties": {"Name": "Yo lands", "Address": "2721 E Cesar Chavez St, Austin, TX 78702, USA", "Zip": "78702", "Price_Level(Google)": 0.0, "Rating(Google)": 5.0}}
,{"type": "Feature", "geometry": {"type": "Point", "coordinates": [-97.722, 30.262]}, "properties": {"Name": "Counter Cafe", "Address": "1914 E 6th St, Austin, TX 78702, USA", "Zip": "78702", "Price_Level(Google)": 2.0, "Rating(Google)": 4.5}}
,{"type": "Feature", "geometry": {"type": "Point", "coordinates": [-97.721, 30.28]}, "properties": {"Name": "Shopper's Food Mart Eatery", "Address": "1901 E Martin Luther King Jr Blvd, Austin, TX 78702, USA", "Zip": "78702", "Price_Level(Google)": 1.0, "Rating(Google)": 3.0}}
,{"type": "Feature", "geometry": {"type": "Point", "coordinates": [-97.718, 30.255]}, "properties": {"Name": "Mongers", "Address": "2401 E Cesar Chavez St, Austin, TX 78702, USA", "Zip": "78702", "Price_Level(Google)": 2.0, "Rating(Google)": 4.5}}
,{"type": "Feature", "geometry": {"type": "Point", "coordinates": [-97.721, 30.262]}, "properties": {"Name": "La Michoacana Meat Market", "Address": "1917 E 7th St, Austin, TX 78702, USA", "Zip": "78702", "Price_Level(Google)": 0.0, "Rating(Google)": 3.7}}
,{"type": "Feature", "geometry": {"type": "Point", "coordinates": [-97.72, 30.274]}, "properties": {"Name": "Pakal Autochthonous Mexican Cookery", "Address": "1818 E 12th St, Austin, TX 78702, USA", "Zip": "78702", "Price_Level(Google)": 0.0, "Rating(Google)": 5.0}}
,{"type": "Feature", "geometry": {"type": "Point", "coordinates": [-97.727, 30.263]}, "properties": {"Name": "Rollin Smoke BBQ", "Address": "1501 E 6th St, Austin, TX 78702, USA", "Zip": "78702", "Price_Level(Google)": 0.0, "Rating(Google)": 4.5}}
,{"type": "Feature", "geometry": {"type": "Point", "coordinates": [-97.699, 30.251]}, "properties": {"Name": "La Taqueria Chilanga", "Address": "5011 E Cesar Chavez St, Austin, TX 78702, USA", "Zip": "78702", "Price_Level(Google)": 0.0, "Rating(Google)": 5.0}}
,{"type": "Feature", "geometry": {"type": "Point", "coordinates": [-97.725, 30.269]}, "properties": {"Name": "Micklethwait Craft Meats", "Address": "1309 Rosewood Ave, Austin, TX 78702, USA", "Zip": "78702", "Price_Level(Google)": 1.0, "Rating(Google)": 4.7}}
,{"type": "Feature", "geometry": {"type": "Point", "coordinates": [-97.727, 30.269]}, "properties": {"Name": "Quickie Pickie", "Address": "1208 E 11th St, Austin, TX 78702, USA", "Zip": "78702", "Price_Level(Google)": 1.0, "Rating(Google)": 4.4}}
,{"type": "Feature", "geometry": {"type": "Point", "coordinates": [-97.718, 30.262]}, "properties": {"Name": "Los Comales", "Address": "2136 E 7th St, Austin, TX 78702, USA", "Zip": "78702", "Price_Level(Google)": 2.0, "Rating(Google)": 3.9}}
,{"type": "Feature", "geometry": {"type": "Point", "coordinates": [-97.721, 30.28]}, "properties": {"Name": "Austin Daily Press", "Address": "1900 E Martin Luther King Jr Blvd B, Austin, TX 78702, USA", "Zip": "78702", "Price_Level(Google)": 0.0, "Rating(Google)": 4.6}}
,{"type": "Feature", "geometry": {"type": "Point", "coordinates": [-97.725, 30.257]}, "properties": {"Name": "Mr. Natural", "Address": "1901 E Cesar Chavez St, Austin, TX 78702, USA", "Zip": "78702", "Price_Level(Google)": 2.0, "Rating(Google)": 4.3}}
,{"type": "Feature", "geometry": {"type": "Point", "coordinates": [-97.693, 30.256]}, "properties": {"Name": "El Secreto De La Abuela", "Address": "817 Airport Blvd, Austin, TX 78702, USA", "Zip": "78702", "Price_Level(Google)": 0.0, "Rating(Google)": 4.3}}
,{"type": "Feature", "geometry": {"type": "Point", "coordinates": [-97.722, 30.262]}, "properties": {"Name": "Lazarus Brewing Co.", "Address": "1902 E 6th St, Austin, TX 78702, USA", "Zip": "78702", "Price_Level(Google)": 2.0, "Rating(Google)": 4.7}}
,{"type": "Feature", "geometry": {"type": "Point", "coordinates": [-97.727, 30.263]}, "properties": {"Name": "Baton Creole", "Address": "3209, 500 Comal St, Austin, TX 78702, United States", "Zip": "78702", "Price_Level(Google)": 0.0, "Rating(Google)": 4.3}}
,{"type": "Feature", "geometry": {"type": "Point", "coordinates": [-97.724, 30.263]}, "properties": {"Name": "Arlo's", "Address": "1700 E 6th St, Austin, TX 78702, USA", "Zip": "78702", "Price_Level(Google)": 0.0, "Rating(Google)": 4.6}}
,{"type": "Feature", "geometry": {"type": "Point", "coordinates": [-97.765, 30.275]}, "properties": {"Name": "El Arroyo", "Address": "1624 W 5th St, Austin, TX 78703, USA", "Zip": "78703", "Price_Level(Google)": 2.0, "Rating(Google)": 3.8}}
,{"type": "Feature", "geometry": {"type": "Point", "coordinates": [-97.752, 30.274]}, "properties": {"Name": "Fresa's - 9th & Lamar", "Address": "915 N Lamar Blvd, Austin, TX 78703, USA", "Zip": "78703", "Price_Level(Google)": 1.0, "Rating(Google)": 4.1}}
,{"type": "Feature", "geometry": {"type": "Point", "coordinates": [-97.776, 30.283]}, "properties": {"Name": "Maudie's Cafe", "Address": "2608 W 7th St, Austin, TX 78703, USA", "Zip": "78703", "Price_Level(Google)": 2.0, "Rating(Google)": 4.0}}
,{"type": "Feature", "geometry": {"type": "Point", "coordinates": [-97.784, 30.295]}, "properties": {"Name": "Hula Hut", "Address": "3825 Lake Austin Blvd, Austin, TX 78703, USA", "Zip": "78703", "Price_Level(Google)": 2.0, "Rating(Google)": 4.1}}
,{"type": "Feature", "geometry": {"type": "Point", "coordinates": [-97.76, 30.279]}, "properties": {"Name": "Galaxy Cafe", "Address": "1000 W Lynn St, Austin, TX 78703, USA", "Zip": "78703", "Price_Level(Google)": 1.0, "Rating(Google)": 4.3}}
,{"type": "Feature", "geometry": {"type": "Point", "coordinates": [-97.772, 30.278]}, "properties": {"Name": "Magnolia Cafe", "Address": "2304 Lake Austin Blvd, Austin, TX 78703, USA", "Zip": "78703", "Price_Level(Google)": 2.0, "Rating(Google)": 4.3}}
,{"type": "Feature", "geometry": {"type": "Point", "coordinates": [-97.743, 30.295]}, "properties": {"Name": "Taco Shack", "Address": "2825 Guadalupe St, Austin, TX 78705, USA", "Zip": "78705", "Price_Level(Google)": 1.0, "Rating(Google)": 4.0}}
,{"type": "Feature", "geometry": {"type": "Point", "coordinates": [-97.754, 30.273]}, "properties": {"Name": "Counter Cafe", "Address": "626 N Lamar Blvd, Austin, TX 78703, USA", "Zip": "78703", "Price_Level(Google)": 2.0, "Rating(Google)": 4.4}}
,{"type": "Feature", "geometry": {"type": "Point", "coordinates": [-97.756, 30.273]}, "properties": {"Name": "Z'Tejas", "Address": "1110 W 6th St, Austin, TX 78703, USA", "Zip": "78703", "Price_Level(Google)": 0.0, "Rating(Google)": 4.0}}
,{"type": "Feature", "geometry": {"type": "Point", "coordinates": [-97.751, 30.27]}, "properties": {"Name": "Hut's Hamburgers", "Address": "807 W 6th St, Austin, TX 78703, USA", "Zip": "78703", "Price_Level(Google)": 1.0, "Rating(Google)": 4.2}}
,{"type": "Feature", "geometry": {"type": "Point", "coordinates": [-97.753, 30.27]}, "properties": {"Name": "Super Burrito", "Address": "817 W 5th St, Austin, TX 78703, USA", "Zip": "78703", "Price_Level(Google)": 1.0, "Rating(Google)": 3.8}}
,{"type": "Feature", "geometry": {"type": "Point", "coordinates": [-97.746, 30.256]}, "properties": {"Name": "Taco Joint", "Address": "134 E Riverside Dr, Austin, TX 78704, USA", "Zip": "78704", "Price_Level(Google)": 0.0, "Rating(Google)": 4.6}}
,{"type": "Feature", "geometry": {"type": "Point", "coordinates": [-97.758, 30.241]}, "properties": {"Name": "Habanero Cafe", "Address": "501 W Oltorf St, Austin, TX 78704, USA", "Zip": "78704", "Price_Level(Google)": 1.0, "Rating(Google)": 4.4}}
,{"type": "Feature", "geometry": {"type": "Point", "coordinates": [-97.757, 30.245]}, "properties": {"Name": "Polvos", "Address": "2004 S 1st St, Austin, TX 78704, USA", "Zip": "78704", "Price_Level(Google)": 2.0, "Rating(Google)": 4.1}}
,{"type": "Feature", "geometry": {"type": "Point", "coordinates": [-97.758, 30.261]}, "properties": {"Name": "Tacos El Quetzal", "Address": "1210 Barton Springs Rd, Austin, TX 78704, USA", "Zip": "78704", "Price_Level(Google)": 0.0, "Rating(Google)": 3.4}}
,{"type": "Feature", "geometry": {"type": "Point", "coordinates": [-97.787, 30.229]}, "properties": {"Name": "Taqueria Los Jaliscienses", "Address": "1815 W Ben White Blvd, Austin, TX 78704, USA", "Zip": "78704", "Price_Level(Google)": 0.0, "Rating(Google)": 3.9}}
,{"type": "Feature", "geometry": {"type": "Point", "coordinates": [-97.787, 30.231]}, "properties": {"Name": "Trippy tacos", "Address": "4205 Manchaca Rd, Austin, TX 78704, USA", "Zip": "78704", "Price_Level(Google)": 0.0, "Rating(Google)": 4.8}}
,{"type": "Feature", "geometry": {"type": "Point", "coordinates": [-97.788, 30.231]}, "properties": {"Name": "Veracruz All Natural", "Address": "4208 Manchaca Rd, Austin, TX 78704, USA", "Zip": "78704", "Price_Level(Google)": 0.0, "Rating(Google)": 4.7}}
,{"type": "Feature", "geometry": {"type": "Point", "coordinates": [-97.757, 30.245]}, "properties": {"Name": "El Primo", "Address": "2011 S 1st St, Austin, TX 78704, USA", "Zip": "78704", "Price_Level(Google)": 0.0, "Rating(Google)": 4.9}}
,{"type": "Feature", "geometry": {"type": "Point", "coordinates": [-97.779, 30.245]}, "properties": {"Name": "Matt's El Rancho", "Address": "2613 S Lamar Blvd, Austin, TX 78704, USA", "Zip": "78704", "Price_Level(Google)": 2.0, "Rating(Google)": 4.1}}
,{"type": "Feature", "geometry": {"type": "Point", "coordinates": [-97.746, 30.257]}, "properties": {"Name": "Don Gume's Tacos", "Address": "343 S Congress Ave, Austin, TX 78704, USA", "Zip": "78704", "Price_Level(Google)": 0.0, "Rating(Google)": 5.0}}
,{"type": "Feature", "geometry": {"type": "Point", "coordinates": [-97.741, 30.297]}, "properties": {"Name": "Changos Taqueria", "Address": "3023 Guadalupe St, Austin, TX 78705, USA", "Zip": "78705", "Price_Level(Google)": 1.0, "Rating(Google)": 4.1}}
,{"type": "Feature", "geometry": {"type": "Point", "coordinates": [-97.721, 30.294]}, "properties": {"Name": "Cafe Hornitos", "Address": "3704 I-35, Austin, TX 78705, USA", "Zip": "78705", "Price_Level(Google)": 1.0, "Rating(Google)": 4.5}}
,{"type": "Feature", "geometry": {"type": "Point", "coordinates": [-97.742, 30.288]}, "properties": {"Name": "QDOBA Mexican Eats", "Address": "2402 Guadalupe St, Austin, TX 78705, USA", "Zip": "78705", "Price_Level(Google)": 1.0, "Rating(Google)": 3.9}}
,{"type": "Feature", "geometry": {"type": "Point", "coordinates": [-97.735, 30.292]}, "properties": {"Name": "Sao Paulo's Restaurant", "Address": "3815, 2809 San Jacinto Blvd, Austin, TX 78705, United States", "Zip": "78705", "Price_Level(Google)": 2.0, "Rating(Google)": 4.3}}
,{"type": "Feature", "geometry": {"type": "Point", "coordinates": [-97.742, 30.286]}, "properties": {"Name": "Taqueria Jefe's", "Address": "411 W 23rd St, Austin, TX 78705, USA", "Zip": "78705", "Price_Level(Google)": 0.0, "Rating(Google)": 3.6}}
,{"type": "Feature", "geometry": {"type": "Point", "coordinates": [-97.741, 30.296]}, "properties": {"Name": "Trudy's Texas Star", "Address": "409 W 30th St, Austin, TX 78705, USA", "Zip": "78705", "Price_Level(Google)": 2.0, "Rating(Google)": 4.2}}
,{"type": "Feature", "geometry": {"type": "Point", "coordinates": [-97.742, 30.296]}, "properties": {"Name": "Cool Beans", "Address": "2908 Fruth St, Austin, TX 78705, USA", "Zip": "78705", "Price_Level(Google)": 0.0, "Rating(Google)": 4.7}}
,{"type": "Feature", "geometry": {"type": "Point", "coordinates": [-97.741, 30.283]}, "properties": {"Name": "Burrito Factory", "Address": "2025 Guadalupe St # 244, Austin, TX 78705, USA", "Zip": "78705", "Price_Level(Google)": 2.0, "Rating(Google)": 4.8}}
,{"type": "Feature", "geometry": {"type": "Point", "coordinates": [-97.745, 30.302]}, "properties": {"Name": "Taqueria Anyeli", "Address": "916 W 32nd St, Austin, TX 78705, USA", "Zip": "78705", "Price_Level(Google)": 0.0, "Rating(Google)": 5.0}}
,{"type": "Feature", "geometry": {"type": "Point", "coordinates": [-97.743, 30.388]}, "properties": {"Name": "Taco Cabana", "Address": "9605 Research Blvd, Austin, TX 78759, USA", "Zip": "78759", "Price_Level(Google)": 1.0, "Rating(Google)": 3.5}}
,{"type": "Feature", "geometry": {"type": "Point", "coordinates": [-97.822, 30.175]}, "properties": {"Name": "Taco Cabana", "Address": "9705 Manchaca Rd, Austin, TX 78748, USA", "Zip": "78748", "Price_Level(Google)": 1.0, "Rating(Google)": 3.2}}
,{"type": "Feature", "geometry": {"type": "Point", "coordinates": [-97.742, 30.297]}, "properties": {"Name": "El Patio Restaurant", "Address": "2938 Guadalupe St, Austin, TX 78705, USA", "Zip": "78705", "Price_Level(Google)": 2.0, "Rating(Google)": 4.1}}
,{"type": "Feature", "geometry": {"type": "Point", "coordinates": [-97.673, 30.375]}, "properties": {"Name": "Vazquez Restaurant", "Address": "915 E Braker Ln, Austin, TX 78753, USA", "Zip": "78753", "Price_Level(Google)": 1.0, "Rating(Google)": 4.2}}
,{"type": "Feature", "geometry": {"type": "Point", "coordinates": [-97.756, 30.371]}, "properties": {"Name": "Torchy's Tacos", "Address": "4211 Spicewood Springs Rd, Austin, TX 78759, USA", "Zip": "78759", "Price_Level(Google)": 1.0, "Rating(Google)": 4.4}}
,{"type": "Feature", "geometry": {"type": "Point", "coordinates": [-97.676, 30.352]}, "properties": {"Name": "Ken's Tacos", "Address": "9408 Dessau Rd, Austin, TX 78754, USA", "Zip": "78754", "Price_Level(Google)": 2.0, "Rating(Google)": 4.5}}
,{"type": "Feature", "geometry": {"type": "Point", "coordinates": [-97.698, 30.363]}, "properties": {"Name": "El Tacorrido", "Address": "9320 N Lamar Blvd, Austin, TX 78753, USA", "Zip": "78753", "Price_Level(Google)": 2.0, "Rating(Google)": 4.2}}
,{"type": "Feature", "geometry": {"type": "Point", "coordinates": [-97.651, 30.389]}, "properties": {"Name": "Taco Bell", "Address": "1548 E Parmer Ln, Austin, TX 78754, USA", "Zip": "78754", "Price_Level(Google)": 1.0, "Rating(Google)": 3.1}}
,{"type": "Feature", "geometry": {"type": "Point", "coordinates": [-97.72, 30.391]}, "properties": {"Name": "Taco Bell", "Address": "2600 W Braker Ln, Austin, TX 78758, USA", "Zip": "78758", "Price_Level(Google)": 1.0, "Rating(Google)": 3.7}}
,{"type": "Feature", "geometry": {"type": "Point", "coordinates": [-97.728, 30.369]}, "properties": {"Name": "Taco Cabana", "Address": "8620 Burnet Rd, Austin, TX 78757, USA", "Zip": "78757", "Price_Level(Google)": 1.0, "Rating(Google)": 3.4}}
,{"type": "Feature", "geometry": {"type": "Point", "coordinates": [-97.693, 30.414]}, "properties": {"Name": "Taco Bell", "Address": "1825 W Parmer Ln, Austin, TX 78727, USA", "Zip": "78727", "Price_Level(Google)": 1.0, "Rating(Google)": 3.3}}
,{"type": "Feature", "geometry": {"type": "Point", "coordinates": [-97.747, 30.4]}, "properties": {"Name": "Taco Bell", "Address": "4811 W Braker Ln, Austin, TX 78759, USA", "Zip": "78759", "Price_Level(Google)": 1.0, "Rating(Google)": 3.1}}
,{"type": "Feature", "geometry": {"type": "Point", "coordinates": [-97.716, 30.359]}, "properties": {"Name": "Taco Cabana", "Address": "8415 Research Blvd, Austin, TX 78758, USA", "Zip": "78758", "Price_Level(Google)": 1.0, "Rating(Google)": 3.5}}
,{"type": "Feature", "geometry": {"type": "Point", "coordinates": [-97.697, 30.439]}, "properties": {"Name": "Taco Bell", "Address": "3501 Wells Branch Pkwy, Austin, TX 78728, USA", "Zip": "78728", "Price_Level(Google)": 1.0, "Rating(Google)": 3.4}}
,{"type": "Feature", "geometry": {"type": "Point", "coordinates": [-97.727, 30.374]}, "properties": {"Name": "Vazquez Restaurant", "Address": "9063 Research Blvd, Austin, TX 78758, USA", "Zip": "78758", "Price_Level(Google)": 2.0, "Rating(Google)": 4.1}}
,{"type": "Feature", "geometry": {"type": "Point", "coordinates": [-97.703, 30.348]}, "properties": {"Name": "\u00d1o\u00f1os Tacos", "Address": "102 W Powell Ln, Austin, TX 78753, USA", "Zip": "78753", "Price_Level(Google)": 0.0, "Rating(Google)": 4.6}}
,{"type": "Feature", "geometry": {"type": "Point", "coordinates": [-97.666, 30.443]}, "properties": {"Name": "Taco Cabana", "Address": "15002 FM1825, Pflugerville, TX 78660, USA", "Zip": "78660", "Price_Level(Google)": 1.0, "Rating(Google)": 3.4}}
,{"type": "Feature", "geometry": {"type": "Point", "coordinates": [-97.652, 30.519]}, "properties": {"Name": "Torchy's Tacos", "Address": "2150 E Palm Valley Blvd Ste 100, Round Rock, TX 78665, USA", "Zip": "78665", "Price_Level(Google)": 0.0, "Rating(Google)": 4.5}}
,{"type": "Feature", "geometry": {"type": "Point", "coordinates": [-97.784, 30.443]}, "properties": {"Name": "Papalote Taco House", "Address": "13219 Research Blvd #100, Austin, TX 78750, USA", "Zip": "78750", "Price_Level(Google)": 1.0, "Rating(Google)": 4.4}}
,{"type": "Feature", "geometry": {"type": "Point", "coordinates": [-97.828, 30.453]}, "properties": {"Name": "Torchy's Tacos", "Address": "11521 Rr 620 N. E-1000, Austin, TX 78726, United States", "Zip": "78726", "Price_Level(Google)": 2.0, "Rating(Google)": 4.4}}
,{"type": "Feature", "geometry": {"type": "Point", "coordinates": [-97.737, 30.287]}, "properties": {"Name": "O's Campus Cafe", "Address": "201 E 24th St, Austin, TX 78712, USA", "Zip": "78712", "Price_Level(Google)": 2.0, "Rating(Google)": 3.8}}
,{"type": "Feature", "geometry": {"type": "Point", "coordinates": [-97.817, 30.231]}, "properties": {"Name": "Cruzteca Mexican Kitchen", "Address": "5207 Brodie Ln #125, Sunset Valley, TX 78745, USA", "Zip": "78745", "Price_Level(Google)": 0.0, "Rating(Google)": 5.0}}
,{"type": "Feature", "geometry": {"type": "Point", "coordinates": [-97.799, 30.275]}, "properties": {"Name": "Chipotle Mexican Grill", "Address": "3300 Bee Caves Rd #670, Austin, TX 78747, USA", "Zip": "78747", "Price_Level(Google)": 1.0, "Rating(Google)": 3.9}}
,{"type": "Feature", "geometry": {"type": "Point", "coordinates": [-97.851, 30.408]}, "properties": {"Name": "Taco Bell", "Address": "7515 N FM 620, Austin, TX 78726, USA", "Zip": "78726", "Price_Level(Google)": 1.0, "Rating(Google)": 3.0}}
,{"type": "Feature", "geometry": {"type": "Point", "coordinates": [-97.795, 30.462]}, "properties": {"Name": "Taco Bell", "Address": "13770 N Highway 183, Austin, TX 78750, United States", "Zip": "78750", "Price_Level(Google)": 1.0, "Rating(Google)": 2.7}}
,{"type": "Feature", "geometry": {"type": "Point", "coordinates": [-97.8, 30.272]}, "properties": {"Name": "Las Palomas", "Address": "3201 Bee Caves Rd #122, Austin, TX 78746, USA", "Zip": "78746", "Price_Level(Google)": 2.0, "Rating(Google)": 4.1}}
,{"type": "Feature", "geometry": {"type": "Point", "coordinates": [-97.77, 30.487]}, "properties": {"Name": "Taco Bell", "Address": "9900 Parmer Lane, Bldg C, Austin, TX 78717, United States", "Zip": "78717", "Price_Level(Google)": 1.0, "Rating(Google)": 3.4}}
,{"type": "Feature", "geometry": {"type": "Point", "coordinates": [-97.787, 30.444]}, "properties": {"Name": "Taco Cabana", "Address": "13376 Research Blvd, Austin, TX 78750, USA", "Zip": "78750", "Price_Level(Google)": 1.0, "Rating(Google)": 2.6}}
,{"type": "Feature", "geometry": {"type": "Point", "coordinates": [-97.76, 30.429]}, "properties": {"Name": "Yummi Tacos", "Address": "12518 Research Blvd # M, Austin, TX 78759, USA", "Zip": "78759", "Price_Level(Google)": 0.0, "Rating(Google)": 4.6}}
,{"type": "Feature", "geometry": {"type": "Point", "coordinates": [-97.703, 30.421]}, "properties": {"Name": "Taco Cabana", "Address": "12525 N Mopac Expy, Austin, TX 78727, USA", "Zip": "78727", "Price_Level(Google)": 1.0, "Rating(Google)": 3.2}}
,{"type": "Feature", "geometry": {"type": "Point", "coordinates": [-97.792, 30.459]}, "properties": {"Name": "Vazquez Restaurant", "Address": "13729 Research Blvd, Austin, TX 78750, USA", "Zip": "78750", "Price_Level(Google)": 2.0, "Rating(Google)": 4.0}}
,{"type": "Feature", "geometry": {"type": "Point", "coordinates": [-97.698, 30.408]}, "properties": {"Name": "Jr's Tacos", "Address": "1921 Cedar Bend Dr, Austin, TX 78757, USA", "Zip": "78757", "Price_Level(Google)": 0.0, "Rating(Google)": 4.6}}
,{"type": "Feature", "geometry": {"type": "Point", "coordinates": [-97.754, 30.426]}, "properties": {"Name": "OneTaco - an urban taqueria", "Address": "12200 Research Blvd #400, Austin, TX 78759, USA", "Zip": "78759", "Price_Level(Google)": 0.0, "Rating(Google)": 4.4}}
,{"type": "Feature", "geometry": {"type": "Point", "coordinates": [-97.757, 30.352]}, "properties": {"Name": "Tacos Ivan", "Address": "7007 Village Center Dr, Austin, TX 78731, USA", "Zip": "78731", "Price_Level(Google)": 0.0, "Rating(Google)": 4.7}}
,{"type": "Feature", "geometry": {"type": "Point", "coordinates": [-97.723, 30.401]}, "properties": {"Name": "Velvet Taco", "Address": "11501 Rock Rose Ave Suite 160, Austin, TX 78758, USA", "Zip": "78758", "Price_Level(Google)": 2.0, "Rating(Google)": 4.4}}
,{"type": "Feature", "geometry": {"type": "Point", "coordinates": [-97.691, 30.171]}, "properties": {"Name": "El Taco Ton- FT", "Address": "8503 Hillmoore Dr, Austin, TX 78719, USA", "Zip": "78719", "Price_Level(Google)": 0.0, "Rating(Google)": 5.0}}
,{"type": "Feature", "geometry": {"type": "Point", "coordinates": [-97.668, 30.202]}, "properties": {"Name": "Salt Lick", "Address": "3600 Presidential Blvd, Austin, TX 78719, USA", "Zip": "78719", "Price_Level(Google)": 2.0, "Rating(Google)": 4.0}}
,{"type": "Feature", "geometry": {"type": "Point", "coordinates": [-97.69, 30.218]}, "properties": {"Name": "Javi's Best Of Tex Mex", "Address": "7709 E Ben White Blvd, Austin, TX 78744, USA", "Zip": "78744", "Price_Level(Google)": 0.0, "Rating(Google)": 4.2}}
,{"type": "Feature", "geometry": {"type": "Point", "coordinates": [-97.697, 30.235]}, "properties": {"Name": "Alonzo's", "Address": "907 Montopolis Dr, Austin, TX 78741, USA", "Zip": "78741", "Price_Level(Google)": 0.0, "Rating(Google)": 4.1}}
,{"type": "Feature", "geometry": {"type": "Point", "coordinates": [-97.694, 30.094]}, "properties": {"Name": "La Bonita Mexican Restaurant", "Address": "10050 S Hwy 183, Austin, TX 78719, USA", "Zip": "78719", "Price_Level(Google)": 0.0, "Rating(Google)": 3.8}}
,{"type": "Feature", "geometry": {"type": "Point", "coordinates": [-97.636, 30.122]}, "properties": {"Name": "Meches Tacos", "Address": "13820 Farm to Market Road 812, Del Valle, TX 78617, USA", "Zip": "78617", "Price_Level(Google)": 0.0, "Rating(Google)": 4.5}}
,{"type": "Feature", "geometry": {"type": "Point", "coordinates": [-97.659, 30.214]}, "properties": {"Name": "Jasmine's Restaurant", "Address": "2463 E State Hwy 71 Service Rd, Del Valle, TX 78617, USA", "Zip": "78617", "Price_Level(Google)": 0.0, "Rating(Google)": 4.4}}
,{"type": "Feature", "geometry": {"type": "Point", "coordinates": [-97.691, 30.371]}, "properties": {"Name": "Maudie's North Lamar", "Address": "10205 N Lamar Blvd, Austin, TX 78753, USA", "Zip": "78753", "Price_Level(Google)": 2.0, "Rating(Google)": 4.3}}
,{"type": "Feature", "geometry": {"type": "Point", "coordinates": [-97.847, 30.422]}, "properties": {"Name": "Flores Mexican Restaurant", "Address": "8300 N FM 620, Austin, TX 78726, USA", "Zip": "78726", "Price_Level(Google)": 0.0, "Rating(Google)": 3.7}}
,{"type": "Feature", "geometry": {"type": "Point", "coordinates": [-97.749, 30.397]}, "properties": {"Name": "Manuel's", "Address": "10201 Jollyville Rd, Austin, TX 78759, USA", "Zip": "78759", "Price_Level(Google)": 2.0, "Rating(Google)": 3.9}}
,{"type": "Feature", "geometry": {"type": "Point", "coordinates": [-97.779, 30.446]}, "properties": {"Name": "Jardin Corona", "Address": "13233 Pond Springs Rd #301, Austin, TX 78729, USA", "Zip": "78729", "Price_Level(Google)": 1.0, "Rating(Google)": 4.3}}
,{"type": "Feature", "geometry": {"type": "Point", "coordinates": [-97.753, 30.389]}, "properties": {"Name": "Z'Tejas Mexican Restaurant and Grill", "Address": "9400 Arboretum Blvd, Austin, TX 78759, USA", "Zip": "78759", "Price_Level(Google)": 2.0, "Rating(Google)": 4.0}}
,{"type": "Feature", "geometry": {"type": "Point", "coordinates": [-97.728, 30.371]}, "properties": {"Name": "Trudy's North Star", "Address": "8820 Burnet Rd, Austin, TX 78757, USA", "Zip": "78757", "Price_Level(Google)": 2.0, "Rating(Google)": 4.0}}
,{"type": "Feature", "geometry": {"type": "Point", "coordinates": [-97.764, 30.343]}, "properties": {"Name": "Azul Tequila", "Address": "3815 Dry Creek Dr, Austin, TX 78731, USA", "Zip": "78731", "Price_Level(Google)": 2.0, "Rating(Google)": 4.1}}
,{"type": "Feature", "geometry": {"type": "Point", "coordinates": [-97.831, 30.482]}, "properties": {"Name": "Taco Bell", "Address": "1810 S Lakeline Blvd, Cedar Park, TX 78613, USA", "Zip": "78613", "Price_Level(Google)": 1.0, "Rating(Google)": 3.2}}
,{"type": "Feature", "geometry": {"type": "Point", "coordinates": [-97.689, 30.517]}, "properties": {"Name": "Taco Bell", "Address": "1108 N Interstate 35 Frontage Rd, Round Rock, TX 78681, USA", "Zip": "78681", "Price_Level(Google)": 1.0, "Rating(Google)": 3.1}}
,{"type": "Feature", "geometry": {"type": "Point", "coordinates": [-97.809, 30.527]}, "properties": {"Name": "Torchy's Tacos", "Address": "1468 E Whitestone Blvd Ste 100, Cedar Park, TX 78613, USA", "Zip": "78613", "Price_Level(Google)": 0.0, "Rating(Google)": 4.4}}
,{"type": "Feature", "geometry": {"type": "Point", "coordinates": [-97.697, 30.274]}, "properties": {"Name": "Beto's Restaurant #2", "Address": "3306 Oak Springs Dr, Austin, TX 78721, USA", "Zip": "78721", "Price_Level(Google)": 0.0, "Rating(Google)": 3.9}}
,{"type": "Feature", "geometry": {"type": "Point", "coordinates": [-97.697, 30.27]}, "properties": {"Name": "Taqueria Don Emilio Austin", "Address": "1138 Gunter St, Austin, TX 78721, USA", "Zip": "78721", "Price_Level(Google)": 0.0, "Rating(Google)": 4.5}}
,{"type": "Feature", "geometry": {"type": "Point", "coordinates": [-97.695, 30.266]}, "properties": {"Name": "Taqueria La China", "Address": "1005 Springdale Rd, Austin, TX 78721, USA", "Zip": "78721", "Price_Level(Google)": 0.0, "Rating(Google)": 3.0}}
,{"type": "Feature", "geometry": {"type": "Point", "coordinates": [-97.722, 30.291]}, "properties": {"Name": "Taqueria Los Altos", "Address": "3301 N Interstate 35 Frontage Rd, Austin, TX 78722, USA", "Zip": "78722", "Price_Level(Google)": 0.0, "Rating(Google)": 4.4}}
,{"type": "Feature", "geometry": {"type": "Point", "coordinates": [-97.723, 30.289]}, "properties": {"Name": "Star Seeds Cafe", "Address": "3101 Interstate 35 Frontage Rd, Austin, TX 78722, USA", "Zip": "78722", "Price_Level(Google)": 2.0, "Rating(Google)": 4.2}}
,{"type": "Feature", "geometry": {"type": "Point", "coordinates": [-97.721, 30.284]}, "properties": {"Name": "Salty Sow", "Address": "1917 Manor Rd, Austin, TX 78722, USA", "Zip": "78722", "Price_Level(Google)": 3.0, "Rating(Google)": 4.6}}
,{"type": "Feature", "geometry": {"type": "Point", "coordinates": [-97.706, 30.307]}, "properties": {"Name": "Paco's Tacos", "Address": "1304 E 51st St, Austin, TX 78723, USA", "Zip": "78723", "Price_Level(Google)": 2.0, "Rating(Google)": 4.5}}
,{"type": "Feature", "geometry": {"type": "Point", "coordinates": [-97.685, 30.3]}, "properties": {"Name": "Taqueria Mi Trailita", "Address": "5301 Manor Rd, Austin, TX 78723, USA", "Zip": "78723", "Price_Level(Google)": 0.0, "Rating(Google)": 4.6}}
,{"type": "Feature", "geometry": {"type": "Point", "coordinates": [-97.705, 30.287]}, "properties": {"Name": "La Fruta Feliz", "Address": "3124 Manor Rd, Austin, TX 78723, USA", "Zip": "78723", "Price_Level(Google)": 0.0, "Rating(Google)": 4.4}}
,{"type": "Feature", "geometry": {"type": "Point", "coordinates": [-97.692, 30.373]}, "properties": {"Name": "Tacos Matamoros", "Address": "10304 N Lamar Blvd, Austin, TX 78753, USA", "Zip": "78753", "Price_Level(Google)": 0.0, "Rating(Google)": 4.4}}
,{"type": "Feature", "geometry": {"type": "Point", "coordinates": [-97.659, 30.284]}, "properties": {"Name": "Pollos Asados El Norte\u00f1o", "Address": "4927 Craigwood Dr, Austin, TX 78725, USA", "Zip": "78725", "Price_Level(Google)": 0.0, "Rating(Google)": 4.9}}
,{"type": "Feature", "geometry": {"type": "Point", "coordinates": [-97.585, 30.249]}, "properties": {"Name": "Welcome to alexandra", "Address": "14010 FM 969, Austin, TX 78724, USA", "Zip": "78724", "Price_Level(Google)": 0.0, "Rating(Google)": 4.9}}
,{"type": "Feature", "geometry": {"type": "Point", "coordinates": [-97.687, 30.239]}, "properties": {"Name": "Mama'S Tacos", "Address": "413 Bastrop Hwy, Austin, TX 78741, USA", "Zip": "78741", "Price_Level(Google)": 0.0, "Rating(Google)": 4.0}}
,{"type": "Feature", "geometry": {"type": "Point", "coordinates": [-97.707, 30.318]}, "properties": {"Name": "Taquerias Arandinas", "Address": "1011 Reinli St, Austin, TX 78723, USA", "Zip": "78723", "Price_Level(Google)": 0.0, "Rating(Google)": 3.9}}
,{"type": "Feature", "geometry": {"type": "Point", "coordinates": [-97.727, 30.241]}, "properties": {"Name": "Taquerias Arandinas", "Address": "2110 E Riverside Dr, Austin, TX 78741, USA", "Zip": "78741", "Price_Level(Google)": 2.0, "Rating(Google)": 4.0}}
,{"type": "Feature", "geometry": {"type": "Point", "coordinates": [-97.705, 30.327]}, "properties": {"Name": "Pappasito's Cantina", "Address": "6513 N Interstate 35, Austin, TX 78752, USA", "Zip": "78752", "Price_Level(Google)": 0.0, "Rating(Google)": 4.1}}
,{"type": "Feature", "geometry": {"type": "Point", "coordinates": [-97.742, 30.265]}, "properties": {"Name": "Uncle Julio's Mexican From Scratch", "Address": "301 Brazos St #150, Austin, TX 78701, USA", "Zip": "78701", "Price_Level(Google)": 0.0, "Rating(Google)": 4.0}}
,{"type": "Feature", "geometry": {"type": "Point", "coordinates": [-97.739, 30.34]}, "properties": {"Name": "El Chilito \u00b7 Burnet", "Address": "6425 Burnet Rd, Austin, TX 78757, USA", "Zip": "78757", "Price_Level(Google)": 1.0, "Rating(Google)": 4.2}}
,{"type": "Feature", "geometry": {"type": "Point", "coordinates": [-97.831, 30.448]}, "properties": {"Name": "Tacos Y Tortas Marus", "Address": "10910 N FM 620, Austin, TX 78726, USA", "Zip": "78726", "Price_Level(Google)": 0.0, "Rating(Google)": 4.7}}
,{"type": "Feature", "geometry": {"type": "Point", "coordinates": [-97.727, 30.396]}, "properties": {"Name": "Rays World Taco", "Address": "11228 Domain Dr, Austin, TX 78758, USA", "Zip": "78758", "Price_Level(Google)": 0.0, "Rating(Google)": 3.5}}
,{"type": "Feature", "geometry": {"type": "Point", "coordinates": [-97.674, 30.435]}, "properties": {"Name": "El Faro", "Address": "1779 Wells Branch Pkwy # 108, Austin, TX 78728, USA", "Zip": "78728", "Price_Level(Google)": 1.0, "Rating(Google)": 4.6}}
,{"type": "Feature", "geometry": {"type": "Point", "coordinates": [-97.695, 30.45]}, "properties": {"Name": "Ramos Restaurant III", "Address": "14611 MoPac Expy # 103, Austin, TX 78728, USA", "Zip": "78728", "Price_Level(Google)": 1.0, "Rating(Google)": 4.4}}
,{"type": "Feature", "geometry": {"type": "Point", "coordinates": [-97.685, 30.446]}, "properties": {"Name": "Polvos Mexican Restaurant", "Address": "14735 Bratton Ln, Austin, TX 78728, USA", "Zip": "78728", "Price_Level(Google)": 2.0, "Rating(Google)": 2.9}}
,{"type": "Feature", "geometry": {"type": "Point", "coordinates": [-97.79, 30.446]}, "properties": {"Name": "La Tapatia", "Address": "13450 US-183, Austin, TX 78729, USA", "Zip": "78729", "Price_Level(Google)": 1.0, "Rating(Google)": 3.9}}
,{"type": "Feature", "geometry": {"type": "Point", "coordinates": [-97.823, 30.334]}, "properties": {"Name": "Ski Shores Cafe", "Address": "2905 Pearce Rd, Austin, TX 78730, USA", "Zip": "78730", "Price_Level(Google)": 2.0, "Rating(Google)": 4.1}}
,{"type": "Feature", "geometry": {"type": "Point", "coordinates": [-97.967, 30.347]}, "properties": {"Name": "Torchy's Tacos", "Address": "1945 Medical Dr Suite 100, Lakeway, TX 78734, USA", "Zip": "78734", "Price_Level(Google)": 0.0, "Rating(Google)": 4.5}}
,{"type": "Feature", "geometry": {"type": "Point", "coordinates": [-97.855, 30.402]}, "properties": {"Name": "Tacos Don Chuy", "Address": "6812 Ranch Rd 620 N, Austin, TX 78732, USA", "Zip": "78732", "Price_Level(Google)": 0.0, "Rating(Google)": 5.0}}
,{"type": "Feature", "geometry": {"type": "Point", "coordinates": [-97.846, 30.393]}, "properties": {"Name": "Salsas Mexican Cuisine & Cantina", "Address": "10601 Ranch to Market Road 2222, Austin, TX 78730, USA", "Zip": "78730", "Price_Level(Google)": 0.0, "Rating(Google)": 3.6}}
,{"type": "Feature", "geometry": {"type": "Point", "coordinates": [-97.852, 30.403]}, "properties": {"Name": "Papa Murphy's Take 'N' Bake Pizza", "Address": "11404 Ranch Rd 2222 Suite 4, Austin, TX 78730, USA", "Zip": "78730", "Price_Level(Google)": 1.0, "Rating(Google)": 4.4}}
,{"type": "Feature", "geometry": {"type": "Point", "coordinates": [-97.937, 30.305]}, "properties": {"Name": "Maudie's Hill Country", "Address": "12506 Shops Pkwy, Austin, TX 78738, USA", "Zip": "78738", "Price_Level(Google)": 2.0, "Rating(Google)": 3.9}}
,{"type": "Feature", "geometry": {"type": "Point", "coordinates": [-97.756, 30.339]}, "properties": {"Name": "ZuZu Handmade Mexican Food", "Address": "5770 N Mopac Expy #500, Austin, TX 78731, USA", "Zip": "78731", "Price_Level(Google)": 2.0, "Rating(Google)": 4.1}}
,{"type": "Feature", "geometry": {"type": "Point", "coordinates": [-97.755, 30.353]}, "properties": {"Name": "Kneaded Pleasures Pizza Cafe", "Address": "3573 Far West Blvd, Austin, TX 78731, USA", "Zip": "78731", "Price_Level(Google)": 1.0, "Rating(Google)": 3.9}}
,{"type": "Feature", "geometry": {"type": "Point", "coordinates": [-97.764, 30.343]}, "properties": {"Name": "Wild Taco 2", "Address": "3800 Dry Creek Dr, Austin, TX 78731, USA", "Zip": "78731", "Price_Level(Google)": 0.0, "Rating(Google)": 0.0}}
,{"type": "Feature", "geometry": {"type": "Point", "coordinates": [-97.786, 30.357]}, "properties": {"Name": "County Line", "Address": "6516, 5204 Ranch Rd 2222, Austin, TX 78731, United States", "Zip": "78731", "Price_Level(Google)": 2.0, "Rating(Google)": 4.3}}
,{"type": "Feature", "geometry": {"type": "Point", "coordinates": [-97.964, 30.346]}, "properties": {"Name": "Taco Bell", "Address": "1703 Ranch Rd 620 S, Lakeway, TX 78734, USA", "Zip": "78734", "Price_Level(Google)": 1.0, "Rating(Google)": 4.0}}
,{"type": "Feature", "geometry": {"type": "Point", "coordinates": [-97.864, 30.201]}, "properties": {"Name": "Taco Bueno", "Address": "5000 W Slaughter Ln, Austin, TX 78749, USA", "Zip": "78749", "Price_Level(Google)": 1.0, "Rating(Google)": 3.9}}
,{"type": "Feature", "geometry": {"type": "Point", "coordinates": [-97.835, 30.22]}, "properties": {"Name": "Taco Cabana", "Address": "Building A., Unit #100, 6611 S MoPac Expy, Austin, TX 78749, United States", "Zip": "78749", "Price_Level(Google)": 1.0, "Rating(Google)": 3.0}}
,{"type": "Feature", "geometry": {"type": "Point", "coordinates": [-97.863, 30.228]}, "properties": {"Name": "Hecho En Mexico", "Address": "6001 W William Cannon Dr # 301, Austin, TX 78749, USA", "Zip": "78749", "Price_Level(Google)": 2.0, "Rating(Google)": 4.4}}
,{"type": "Feature", "geometry": {"type": "Point", "coordinates": [-97.945, 30.381]}, "properties": {"Name": "Don Mario Mexican Restaurant", "Address": "1700 Ranch Rd 620 N #110, Austin, TX 78734, USA", "Zip": "78734", "Price_Level(Google)": 2.0, "Rating(Google)": 4.4}}
,{"type": "Feature", "geometry": {"type": "Point", "coordinates": [-97.969, 30.342]}, "properties": {"Name": "Flores Mexican Restaurant", "Address": "2127 Lohmans Crossing Rd, Austin, TX 78734, USA", "Zip": "78734", "Price_Level(Google)": 2.0, "Rating(Google)": 3.9}}
,{"type": "Feature", "geometry": {"type": "Point", "coordinates": [-97.982, 30.364]}, "properties": {"Name": "Cafe Lago", "Address": "1200 Lakeway Dr, Lakeway, TX 78734, USA", "Zip": "78734", "Price_Level(Google)": 2.0, "Rating(Google)": 4.3}}
,{"type": "Feature", "geometry": {"type": "Point", "coordinates": [-97.926, 30.412]}, "properties": {"Name": "Los Pinos Mexican Restaurant", "Address": "4919 Hudson Bend Rd, Austin, TX 78734, USA", "Zip": "78734", "Price_Level(Google)": 2.0, "Rating(Google)": 4.0}}
,{"type": "Feature", "geometry": {"type": "Point", "coordinates": [-97.855, 30.236]}, "properties": {"Name": "Taqueria Chapala 3", "Address": "6116 W US Hwy 290 Service Rd, Austin, TX 78735, USA", "Zip": "78735", "Price_Level(Google)": 2.0, "Rating(Google)": 4.4}}
,{"type": "Feature", "geometry": {"type": "Point", "coordinates": [-97.822, 30.236]}, "properties": {"Name": "Serranos Cocina y Cantina - Mopac", "Address": "5030 W US Hwy 290 Service Rd, Austin, TX 78735, USA", "Zip": "78735", "Price_Level(Google)": 2.0, "Rating(Google)": 4.3}}
,{"type": "Feature", "geometry": {"type": "Point", "coordinates": [-97.84, 30.237]}, "properties": {"Name": "Donut Taco Palace I", "Address": "5446 US-290, Austin, TX 78735, USA", "Zip": "78735", "Price_Level(Google)": 2.0, "Rating(Google)": 4.4}}
,{"type": "Feature", "geometry": {"type": "Point", "coordinates": [-97.883, 30.244]}, "properties": {"Name": "Jack Allen's Kitchen Oak Hill", "Address": "7720 TX-71, Austin, TX 78735, USA", "Zip": "78735", "Price_Level(Google)": 2.0, "Rating(Google)": 4.6}}
,{"type": "Feature", "geometry": {"type": "Point", "coordinates": [-97.866, 30.233]}, "properties": {"Name": "Chinos Banditos", "Address": "6705 W US Hwy 290 Service Rd Ste 608, Austin, TX 78735, USA", "Zip": "78735", "Price_Level(Google)": 0.0, "Rating(Google)": 4.7}}
,{"type": "Feature", "geometry": {"type": "Point", "coordinates": [-97.763, 30.264]}, "properties": {"Name": "Chuy's", "Address": "1728 Barton Springs Rd, Austin, TX 78704, USA", "Zip": "78704", "Price_Level(Google)": 2.0, "Rating(Google)": 4.2}}
,{"type": "Feature", "geometry": {"type": "Point", "coordinates": [-97.833, 30.145]}, "properties": {"Name": "Texican Cafe - Manchaca", "Address": "11940 Manchaca Rd, Austin, TX 78748, USA", "Zip": "78748", "Price_Level(Google)": 2.0, "Rating(Google)": 4.2}}
,{"type": "Feature", "geometry": {"type": "Point", "coordinates": [-97.791, 30.162]}, "properties": {"Name": "Serranos Cocina y Cantina", "Address": "9500 S IH 35 Frontage Rd, Austin, TX 78748, USA", "Zip": "78748", "Price_Level(Google)": 2.0, "Rating(Google)": 4.0}}
,{"type": "Feature", "geometry": {"type": "Point", "coordinates": [-97.806, 30.202]}, "properties": {"Name": "Casa Garcia's", "Address": "1901 W William Cannon Dr, Austin, TX 78745, USA", "Zip": "78745", "Price_Level(Google)": 2.0, "Rating(Google)": 4.2}}
,{"type": "Feature", "geometry": {"type": "Point", "coordinates": [-97.927, 30.231]}, "properties": {"Name": "Taco Brother", "Address": "9201 US-290, Austin, TX 78736, USA", "Zip": "78736", "Price_Level(Google)": 0.0, "Rating(Google)": 5.0}}
,{"type": "Feature", "geometry": {"type": "Point", "coordinates": [-97.877, 30.233]}, "properties": {"Name": "Donn's Texas BBQ", "Address": "7001 Oak Meadow Dr, Austin, TX 78736, USA", "Zip": "78736", "Price_Level(Google)": 2.0, "Rating(Google)": 4.1}}
,{"type": "Feature", "geometry": {"type": "Point", "coordinates": [-97.972, 30.199]}, "properties": {"Name": "Tia's Kitchen", "Address": "12701 Nutty Brown Rd, Austin, TX 78737, USA", "Zip": "78737", "Price_Level(Google)": 0.0, "Rating(Google)": 4.9}}
,{"type": "Feature", "geometry": {"type": "Point", "coordinates": [-97.957, 30.222]}, "properties": {"Name": "Taqueria La Escondida 2", "Address": "10900 US-290, Austin, TX 78737, USA", "Zip": "78737", "Price_Level(Google)": 0.0, "Rating(Google)": 3.5}}
,{"type": "Feature", "geometry": {"type": "Point", "coordinates": [-97.975, 30.209]}, "properties": {"Name": "Flores #2", "Address": "Austin, TX 78737, USA", "Zip": "78737", "Price_Level(Google)": 0.0, "Rating(Google)": 4.6}}
,{"type": "Feature", "geometry": {"type": "Point", "coordinates": [-97.834, 30.143]}, "properties": {"Name": "Macho Taco", "Address": "12110 Manchaca Rd # 102, Austin, TX 78748, USA", "Zip": "78748", "Price_Level(Google)": 1.0, "Rating(Google)": 4.6}}
,{"type": "Feature", "geometry": {"type": "Point", "coordinates": [-97.935, 30.23]}, "properties": {"Name": "Gordo's Tortas & BBQ", "Address": "9601 US-290, Austin, TX 78737, USA", "Zip": "78737", "Price_Level(Google)": 0.0, "Rating(Google)": 4.5}}
,{"type": "Feature", "geometry": {"type": "Point", "coordinates": [-97.961, 30.31]}, "properties": {"Name": "Hill Country Food Mart - Mr.Taco King", "Address": "13908 TX-71, Austin, TX 78738, USA", "Zip": "78738", "Price_Level(Google)": 2.0, "Rating(Google)": 4.0}}
,{"type": "Feature", "geometry": {"type": "Point", "coordinates": [-98.008, 30.298]}, "properties": {"Name": "Verde's Mexican Parrilla", "Address": "16018 Hamilton Pool Rd, Austin, TX 78738, USA", "Zip": "78738", "Price_Level(Google)": 2.0, "Rating(Google)": 4.4}}
,{"type": "Feature", "geometry": {"type": "Point", "coordinates": [-97.919, 30.308]}, "properties": {"Name": "Los Pinos", "Address": "11715 Bee Caves Rd, Austin, TX 78738, USA", "Zip": "78738", "Price_Level(Google)": 0.0, "Rating(Google)": 4.2}}
,{"type": "Feature", "geometry": {"type": "Point", "coordinates": [-97.94, 30.309]}, "properties": {"Name": "Cafe Blue at Hill Country Galleria", "Address": "12800 Hill Country Blvd. Suite G-115, Bee Cave, TX 78738, United States", "Zip": "78738", "Price_Level(Google)": 2.0, "Rating(Google)": 4.1}}
,{"type": "Feature", "geometry": {"type": "Point", "coordinates": [-97.95, 30.309]}, "properties": {"Name": "Rosie's Tamale House", "Address": "13436 TX-71, Austin, TX 78738, USA", "Zip": "78738", "Price_Level(Google)": 2.0, "Rating(Google)": 4.1}}
,{"type": "Feature", "geometry": {"type": "Point", "coordinates": [-97.936, 30.306]}, "properties": {"Name": "Schmidt Family Barbecue", "Address": "12532 Farm to Market 2244, Bee Cave, TX 78738, USA", "Zip": "78738", "Price_Level(Google)": 2.0, "Rating(Google)": 4.0}}
,{"type": "Feature", "geometry": {"type": "Point", "coordinates": [-97.843, 30.194]}, "properties": {"Name": "Casa Arandinas", "Address": "9001 Brodie Ln, Austin, TX 78748, USA", "Zip": "78748", "Price_Level(Google)": 0.0, "Rating(Google)": 4.2}}
,{"type": "Feature", "geometry": {"type": "Point", "coordinates": [-97.823, 30.085]}, "properties": {"Name": "Taco Bell", "Address": "580 Old San Antonio Rd, Buda, TX 78610, USA", "Zip": "78610", "Price_Level(Google)": 1.0, "Rating(Google)": 3.7}}
,{"type": "Feature", "geometry": {"type": "Point", "coordinates": [-97.833, 30.142]}, "properties": {"Name": "Taco Aranda Mexican Food", "Address": "12115 Manchaca Rd, Austin, TX 78748, USA", "Zip": "78748", "Price_Level(Google)": 0.0, "Rating(Google)": 4.2}}
,{"type": "Feature", "geometry": {"type": "Point", "coordinates": [-97.834, 30.153]}, "properties": {"Name": "Valentina's Tex Mex BBQ", "Address": "11500 Manchaca Rd, Austin, TX 78745, USA", "Zip": "78745", "Price_Level(Google)": 1.0, "Rating(Google)": 4.7}}
,{"type": "Feature", "geometry": {"type": "Point", "coordinates": [-97.73, 30.242]}, "properties": {"Name": "Rosita's Al Pastor", "Address": "1911 E Riverside Dr, Austin, TX 78741, USA", "Zip": "78741", "Price_Level(Google)": 2.0, "Rating(Google)": 4.2}}
,{"type": "Feature", "geometry": {"type": "Point", "coordinates": [-97.73, 30.242]}, "properties": {"Name": "Tacos Al Pastor", "Address": "1917 E Riverside Dr, Austin, TX 78741, USA", "Zip": "78741", "Price_Level(Google)": 0.0, "Rating(Google)": 4.6}}
,{"type": "Feature", "geometry": {"type": "Point", "coordinates": [-97.721, 30.208]}, "properties": {"Name": "El Mes\u00f3n", "Address": "5808 Burleson Rd, Austin, TX 78744, USA", "Zip": "78744", "Price_Level(Google)": 1.0, "Rating(Google)": 4.0}}
,{"type": "Feature", "geometry": {"type": "Point", "coordinates": [-97.745, 30.195]}, "properties": {"Name": "La Placita", "Address": "5310 S Pleasant Valley Rd, Austin, TX 78744, USA", "Zip": "78744", "Price_Level(Google)": 0.0, "Rating(Google)": 4.2}}
,{"type": "Feature", "geometry": {"type": "Point", "coordinates": [-97.732, 30.213]}, "properties": {"Name": "Casa Moreno's", "Address": "4606 Burleson Rd, Austin, TX 78744, USA", "Zip": "78744", "Price_Level(Google)": 0.0, "Rating(Google)": 4.4}}
,{"type": "Feature", "geometry": {"type": "Point", "coordinates": [-97.739, 30.193]}, "properties": {"Name": "Taqueria Peloncitos", "Address": "5303 Nuckols Crossing Rd, Austin, TX 78744, USA", "Zip": "78744", "Price_Level(Google)": 0.0, "Rating(Google)": 4.3}}
,{"type": "Feature", "geometry": {"type": "Point", "coordinates": [-97.769, 30.175]}, "properties": {"Name": "Secret Taco Stand", "Address": "7612 Old Lockhart Hwy, Austin, TX 78744, USA", "Zip": "78744", "Price_Level(Google)": 0.0, "Rating(Google)": 4.0}}
,{"type": "Feature", "geometry": {"type": "Point", "coordinates": [-97.744, 30.197]}, "properties": {"Name": "Tacos", "Address": "Austin, TX 78744, USA", "Zip": "78744", "Price_Level(Google)": 0.0, "Rating(Google)": 0.0}}
,{"type": "Feature", "geometry": {"type": "Point", "coordinates": [-97.784, 30.17]}, "properties": {"Name": "Don Dario's Cantina", "Address": "8801 S IH 35 Frontage Rd, Austin, TX 78744, USA", "Zip": "78744", "Price_Level(Google)": 0.0, "Rating(Google)": 4.0}}
,{"type": "Feature", "geometry": {"type": "Point", "coordinates": [-97.752, 30.202]}, "properties": {"Name": "Lopez Taco Truck", "Address": "512) 619-3798, 4914 Pepper Ln, Austin, TX 78744, USA", "Zip": "78744", "Price_Level(Google)": 0.0, "Rating(Google)": 4.9}}
,{"type": "Feature", "geometry": {"type": "Point", "coordinates": [-97.718, 30.207]}, "properties": {"Name": "Casa Vallarta", "Address": "6002 Burleson Rd, Austin, TX 78744, USA", "Zip": "78744", "Price_Level(Google)": 0.0, "Rating(Google)": 4.1}}
,{"type": "Feature", "geometry": {"type": "Point", "coordinates": [-97.753, 30.211]}, "properties": {"Name": "The Limestone Kitchen Restaurant & Lounge", "Address": "4415 S IH 35 Frontage Rd, Austin, TX 78744, USA", "Zip": "78744", "Price_Level(Google)": 0.0, "Rating(Google)": 3.2}}
,{"type": "Feature", "geometry": {"type": "Point", "coordinates": [-97.763, 30.201]}, "properties": {"Name": "Mariana's Kitchen", "Address": "5510 S IH 35 Frontage Rd, Austin, TX 78745, USA", "Zip": "78745", "Price_Level(Google)": 0.0, "Rating(Google)": 4.5}}
,{"type": "Feature", "geometry": {"type": "Point", "coordinates": [-97.684, 30.205]}, "properties": {"Name": "Taqueria Morelos", "Address": "3100 US-183, Austin, TX 78744, USA", "Zip": "78744", "Price_Level(Google)": 0.0, "Rating(Google)": 4.6}}
,{"type": "Feature", "geometry": {"type": "Point", "coordinates": [-97.747, 30.18]}, "properties": {"Name": "Fruttilandia", "Address": "Austin, TX 78744, United States", "Zip": "78744", "Price_Level(Google)": 0.0, "Rating(Google)": 0.0}}
,{"type": "Feature", "geometry": {"type": "Point", "coordinates": [-97.767, 30.189]}, "properties": {"Name": "Chanitas Tacos", "Address": "1615-1679 E William Cannon Dr, Austin, TX 78744, USA", "Zip": "78744", "Price_Level(Google)": 0.0, "Rating(Google)": 5.0}}
,{"type": "Feature", "geometry": {"type": "Point", "coordinates": [-97.686, 30.189]}, "properties": {"Name": "Veronica's Pupusas y Tacos", "Address": "Austin, TX 78744, USA", "Zip": "78744", "Price_Level(Google)": 0.0, "Rating(Google)": 4.7}}
,{"type": "Feature", "geometry": {"type": "Point", "coordinates": [-97.766, 30.219]}, "properties": {"Name": "Kesos Taco House - Taco Truck", "Address": "4329 S Congress Ave, Austin, TX 78745, USA", "Zip": "78745", "Price_Level(Google)": 0.0, "Rating(Google)": 5.0}}
,{"type": "Feature", "geometry": {"type": "Point", "coordinates": [-97.778, 30.194]}, "properties": {"Name": "Jalisco's", "Address": "6601 S Congress Ave, Austin, TX 78745, USA", "Zip": "78745", "Price_Level(Google)": 2.0, "Rating(Google)": 4.1}}
,{"type": "Feature", "geometry": {"type": "Point", "coordinates": [-97.815, 30.208]}, "properties": {"Name": "La Posada", "Address": "6800 West Gate Blvd #143, Austin, TX 78745, USA", "Zip": "78745", "Price_Level(Google)": 2.0, "Rating(Google)": 4.3}}
,{"type": "Feature", "geometry": {"type": "Point", "coordinates": [-97.77, 30.212]}, "properties": {"Name": "Tacos Las Amazonas Estilo Jalisco", "Address": "4811 S Congress Ave, Austin, TX 78745, USA", "Zip": "78745", "Price_Level(Google)": 0.0, "Rating(Google)": 4.8}}
,{"type": "Feature", "geometry": {"type": "Point", "coordinates": [-97.8, 30.2]}, "properties": {"Name": "Taqueria Morales", "Address": "1415 W William Cannon Dr, Austin, TX 78745, USA", "Zip": "78745", "Price_Level(Google)": 0.0, "Rating(Google)": 4.7}}
,{"type": "Feature", "geometry": {"type": "Point", "coordinates": [-97.771, 30.225]}, "properties": {"Name": "Jefes Tacos", "Address": "4128 S 1st St, Austin, TX 78745, USA", "Zip": "78745", "Price_Level(Google)": 0.0, "Rating(Google)": 5.0}}
,{"type": "Feature", "geometry": {"type": "Point", "coordinates": [-97.808, 30.2]}, "properties": {"Name": "Mami's tacos", "Address": "7200 Manchaca Rd, Austin, TX 78745, USA", "Zip": "78745", "Price_Level(Google)": 0.0, "Rating(Google)": 4.9}}
,{"type": "Feature", "geometry": {"type": "Point", "coordinates": [-97.808, 30.258]}, "properties": {"Name": "Mabos Craft Tacos", "Address": "2901 S Capital of Texas Hwy, Austin, TX 78746, USA", "Zip": "78746", "Price_Level(Google)": 0.0, "Rating(Google)": 5.0}}
,{"type": "Feature", "geometry": {"type": "Point", "coordinates": [-97.803, 30.337]}, "properties": {"Name": "Maudie's Milagro", "Address": "3801 N Capital of Texas Hwy, Austin, TX 78746, USA", "Zip": "78746", "Price_Level(Google)": 2.0, "Rating(Google)": 4.2}}
,{"type": "Feature", "geometry": {"type": "Point", "coordinates": [-97.817, 30.271]}, "properties": {"Name": "Vaqueros Cafe & Cantina", "Address": "1801 S Capital of Texas Hwy, Austin, TX 78746, USA", "Zip": "78746", "Price_Level(Google)": 0.0, "Rating(Google)": 4.0}}
,{"type": "Feature", "geometry": {"type": "Point", "coordinates": [-97.787, 30.272]}, "properties": {"Name": "Chinatown", "Address": "2712 Bee Caves Rd, Austin, TX 78746, USA", "Zip": "78746", "Price_Level(Google)": 2.0, "Rating(Google)": 4.1}}
,{"type": "Feature", "geometry": {"type": "Point", "coordinates": [-97.826, 30.291]}, "properties": {"Name": "Izumi Sushi", "Address": "701 S Capital of Texas Hwy E-550, Austin, TX 78746, USA", "Zip": "78746", "Price_Level(Google)": 2.0, "Rating(Google)": 4.0}}
,{"type": "Feature", "geometry": {"type": "Point", "coordinates": [-97.825, 30.172]}, "properties": {"Name": "Panchita Taco Taco", "Address": "10006 Manchaca Rd, Austin, TX 78748, USA", "Zip": "78748", "Price_Level(Google)": 0.0, "Rating(Google)": 3.7}}
,{"type": "Feature", "geometry": {"type": "Point", "coordinates": [-97.834, 30.215]}, "properties": {"Name": "La Familia Mexican Restaurant", "Address": "3601 W William Cannon Dr # 900, Austin, TX 78749, USA", "Zip": "78749", "Price_Level(Google)": 2.0, "Rating(Google)": 3.9}}
,{"type": "Feature", "geometry": {"type": "Point", "coordinates": [-97.842, 30.218]}, "properties": {"Name": "Chuy's", "Address": "4301 W William Cannon Dr, Austin, TX 78749, USA", "Zip": "78749", "Price_Level(Google)": 0.0, "Rating(Google)": 4.4}}
,{"type": "Feature", "geometry": {"type": "Point", "coordinates": [-97.879, 30.204]}, "properties": {"Name": "Waterloo Ice House Escarpment", "Address": "9600 Escarpment Blvd, Austin, TX 78749, USA", "Zip": "78749", "Price_Level(Google)": 2.0, "Rating(Google)": 4.0}}
,{"type": "Feature", "geometry": {"type": "Point", "coordinates": [-97.815, 30.462]}, "properties": {"Name": "Taco Shack", "Address": "12233 Ranch Rd 620 N, Austin, TX 78750, USA", "Zip": "78750", "Price_Level(Google)": 0.0, "Rating(Google)": 3.8}}
,{"type": "Feature", "geometry": {"type": "Point", "coordinates": [-97.816, 30.463]}, "properties": {"Name": "Taqueria Guadalajara", "Address": "12226 Ranch Rd 620 N, Austin, TX 78750, USA", "Zip": "78750", "Price_Level(Google)": 2.0, "Rating(Google)": 4.1}}
,{"type": "Feature", "geometry": {"type": "Point", "coordinates": [-97.735, 30.357]}, "properties": {"Name": "Dos Batos", "Address": "2525 W Anderson Ln #175, Austin, TX 78757, USA", "Zip": "78757", "Price_Level(Google)": 2.0, "Rating(Google)": 4.4}}
,{"type": "Feature", "geometry": {"type": "Point", "coordinates": [-97.726, 30.305]}, "properties": {"Name": "Julio's Cafe", "Address": "4230 Duval St, Austin, TX 78751, USA", "Zip": "78751", "Price_Level(Google)": 2.0, "Rating(Google)": 4.3}}
,{"type": "Feature", "geometry": {"type": "Point", "coordinates": [-97.721, 30.3]}, "properties": {"Name": "Freebirds World Burrito", "Address": "1000 E 41st St Ste. 260, Austin, TX 78751, USA", "Zip": "78751", "Price_Level(Google)": 2.0, "Rating(Google)": 4.1}}
,{"type": "Feature", "geometry": {"type": "Point", "coordinates": [-97.723, 30.299]}, "properties": {"Name": "Chetos Tacos", "Address": "4000-4010 Red River St, Austin, TX 78751, USA", "Zip": "78751", "Price_Level(Google)": 0.0, "Rating(Google)": 4.9}}
,{"type": "Feature", "geometry": {"type": "Point", "coordinates": [-97.715, 30.312]}, "properties": {"Name": "Taqueria La Canaria", "Address": "& e, Airport Blvd & E 51st St, Austin, TX 78751, United States", "Zip": "78751", "Price_Level(Google)": 0.0, "Rating(Google)": 4.4}}
,{"type": "Feature", "geometry": {"type": "Point", "coordinates": [-97.712, 30.318]}, "properties": {"Name": "Quality Seafood Market", "Address": "5621 Airport Blvd, Austin, TX 78751, USA", "Zip": "78751", "Price_Level(Google)": 2.0, "Rating(Google)": 4.3}}
,{"type": "Feature", "geometry": {"type": "Point", "coordinates": [-97.727, 30.325]}, "properties": {"Name": "Dan's Hamburgers", "Address": "5602 N Lamar Blvd, Austin, TX 78751, USA", "Zip": "78751", "Price_Level(Google)": 1.0, "Rating(Google)": 4.5}}
,{"type": "Feature", "geometry": {"type": "Point", "coordinates": [-97.722, 30.299]}, "properties": {"Name": "Victors Tacos", "Address": "4011 Red River St, Austin, TX 78751, USA", "Zip": "78751", "Price_Level(Google)": 0.0, "Rating(Google)": 0.0}}
,{"type": "Feature", "geometry": {"type": "Point", "coordinates": [-97.716, 30.334]}, "properties": {"Name": "Brazas Taco House", "Address": "6801 Airport Blvd, Austin, TX 78752, USA", "Zip": "78752", "Price_Level(Google)": 0.0, "Rating(Google)": 4.6}}
,{"type": "Feature", "geometry": {"type": "Point", "coordinates": [-97.718, 30.336]}, "properties": {"Name": "Taqueria Los Jaliscienses", "Address": "6903 Airport Blvd, Austin, TX 78752, USA", "Zip": "78752", "Price_Level(Google)": 0.0, "Rating(Google)": 4.1}}
,{"type": "Feature", "geometry": {"type": "Point", "coordinates": [-97.722, 30.332]}, "properties": {"Name": "Jefes", "Address": "720 N Lamar Blvd, Austin, TX 78752, USA", "Zip": "78752", "Price_Level(Google)": 0.0, "Rating(Google)": 4.5}}
,{"type": "Feature", "geometry": {"type": "Point", "coordinates": [-97.718, 30.333]}, "properties": {"Name": "Taco Wagon on the corner", "Address": "600 Canion St, Austin, TX 78752, USA", "Zip": "78752", "Price_Level(Google)": 0.0, "Rating(Google)": 0.0}}
,{"type": "Feature", "geometry": {"type": "Point", "coordinates": [-97.705, 30.334]}, "properties": {"Name": "Tacos La Esmeralda", "Address": "704 E St Johns Ave, Austin, TX 78752, USA", "Zip": "78752", "Price_Level(Google)": 0.0, "Rating(Google)": 5.0}}
,{"type": "Feature", "geometry": {"type": "Point", "coordinates": [-97.692, 30.327]}, "properties": {"Name": "Aguileras Mexican Restaurant", "Address": "7210 Cameron Rd, Austin, TX 78752, USA", "Zip": "78752", "Price_Level(Google)": 0.0, "Rating(Google)": 4.0}}
,{"type": "Feature", "geometry": {"type": "Point", "coordinates": [-97.705, 30.328]}, "properties": {"Name": "Chili's Grill & Bar", "Address": "6619 N Interstate Hwy 35, Austin, TX 78752, USA", "Zip": "78752", "Price_Level(Google)": 1.0, "Rating(Google)": 3.8}}
,{"type": "Feature", "geometry": {"type": "Point", "coordinates": [-97.715, 30.345]}, "properties": {"Name": "Tex Mex Joe's", "Address": "7600 N Lamar Blvd, Austin, TX 78752, USA", "Zip": "78752", "Price_Level(Google)": 0.0, "Rating(Google)": 4.5}}
,{"type": "Feature", "geometry": {"type": "Point", "coordinates": [-97.708, 30.325]}, "properties": {"Name": "Vivo", "Address": "6406 N Interstate Hwy 35, Austin, TX 78752, USA", "Zip": "78752", "Price_Level(Google)": 2.0, "Rating(Google)": 4.3}}
,{"type": "Feature", "geometry": {"type": "Point", "coordinates": [-97.693, 30.327]}, "properties": {"Name": "Taco-N-Share", "Address": "7208 Cameron Rd, Austin, TX 78752, USA", "Zip": "78752", "Price_Level(Google)": 0.0, "Rating(Google)": 0.0}}
,{"type": "Feature", "geometry": {"type": "Point", "coordinates": [-97.692, 30.327]}, "properties": {"Name": "El Rinconcito Del Sabor", "Address": "7213 Cameron Rd, Austin, TX 78752, USA", "Zip": "78752", "Price_Level(Google)": 0.0, "Rating(Google)": 4.4}}
,{"type": "Feature", "geometry": {"type": "Point", "coordinates": [-97.72, 30.335]}, "properties": {"Name": "Taqueria Los Gallitos", "Address": "Austin, TX 78752, USA", "Zip": "78752", "Price_Level(Google)": 0.0, "Rating(Google)": 0.0}}
,{"type": "Feature", "geometry": {"type": "Point", "coordinates": [-97.677, 30.377]}, "properties": {"Name": "La Monta\u00f1a Tacos", "Address": "707 E Braker Ln #201, Austin, TX 78753, USA", "Zip": "78753", "Price_Level(Google)": 0.0, "Rating(Google)": 4.0}}
,{"type": "Feature", "geometry": {"type": "Point", "coordinates": [-97.715, 30.37]}, "properties": {"Name": "\u00d1o\u00f1os Tacos #2", "Address": "1762 Colony Creek Dr, Austin, TX 78758, USA", "Zip": "78758", "Price_Level(Google)": 0.0, "Rating(Google)": 4.8}}
,{"type": "Feature", "geometry": {"type": "Point", "coordinates": [-97.689, 30.377]}, "properties": {"Name": "El Chilango", "Address": "701-755 Provines Dr, Austin, TX 78753, USA", "Zip": "78753", "Price_Level(Google)": 0.0, "Rating(Google)": 4.6}}
,{"type": "Feature", "geometry": {"type": "Point", "coordinates": [-97.689, 30.377]}, "properties": {"Name": "Matamoros Tacos", "Address": "10810 N Lamar Blvd, Austin, TX 78753, USA", "Zip": "78753", "Price_Level(Google)": 0.0, "Rating(Google)": 3.6}}
,{"type": "Feature", "geometry": {"type": "Point", "coordinates": [-97.737, 30.36]}, "properties": {"Name": "OneTaco - an urban taqueria", "Address": "2900 W Anderson Ln suite k, Austin, TX 78757, USA", "Zip": "78757", "Price_Level(Google)": 0.0, "Rating(Google)": 4.6}}
,{"type": "Feature", "geometry": {"type": "Point", "coordinates": [-97.741, 30.316]}, "properties": {"Name": "La Cocina de Consuelo", "Address": "4516 Burnet Rd, Austin, TX 78756, USA", "Zip": "78756", "Price_Level(Google)": 2.0, "Rating(Google)": 4.4}}
,{"type": "Feature", "geometry": {"type": "Point", "coordinates": [-97.743, 30.326]}, "properties": {"Name": "Fonda San Miguel", "Address": "2330 W N Loop Blvd, Austin, TX 78756, USA", "Zip": "78756", "Price_Level(Google)": 3.0, "Rating(Google)": 4.4}}
,{"type": "Feature", "geometry": {"type": "Point", "coordinates": [-97.74, 30.331]}, "properties": {"Name": "The Peached Tortilla", "Address": "5520 Burnet Rd #100, Austin, TX 78756, USA", "Zip": "78756", "Price_Level(Google)": 2.0, "Rating(Google)": 4.5}}
,{"type": "Feature", "geometry": {"type": "Point", "coordinates": [-97.731, 30.331]}, "properties": {"Name": "Chekos", "Address": "1304 W Koenig Ln, Austin, TX 78756, USA", "Zip": "78756", "Price_Level(Google)": 2.0, "Rating(Google)": 4.3}}
,{"type": "Feature", "geometry": {"type": "Point", "coordinates": [-97.739, 30.312]}, "properties": {"Name": "Chipotle Mexican Grill", "Address": "4400 N Lamar Blvd, Austin, TX 78756, USA", "Zip": "78756", "Price_Level(Google)": 1.0, "Rating(Google)": 4.2}}
,{"type": "Feature", "geometry": {"type": "Point", "coordinates": [-97.741, 30.322]}, "properties": {"Name": "La Mancha", "Address": "2203 Hancock Dr, Austin, TX 78756, USA", "Zip": "78756", "Price_Level(Google)": 0.0, "Rating(Google)": 4.2}}
,{"type": "Feature", "geometry": {"type": "Point", "coordinates": [-97.738, 30.313]}, "properties": {"Name": "Chili's Grill & Bar", "Address": "4420 N Lamar Blvd, Austin, TX 78756, USA", "Zip": "78756", "Price_Level(Google)": 1.0, "Rating(Google)": 3.9}}
,{"type": "Feature", "geometry": {"type": "Point", "coordinates": [-97.74, 30.321]}, "properties": {"Name": "The Big Kahuna", "Address": "5000 Burnet Rd, Austin, TX 78756, USA", "Zip": "78756", "Price_Level(Google)": 1.0, "Rating(Google)": 4.8}}
,{"type": "Feature", "geometry": {"type": "Point", "coordinates": [-97.743, 30.306]}, "properties": {"Name": "Snooze an A.M. Eatery", "Address": "3800 N Lamar Blvd #120, Austin, TX 78756, USA", "Zip": "78756", "Price_Level(Google)": 2.0, "Rating(Google)": 4.5}}
,{"type": "Feature", "geometry": {"type": "Point", "coordinates": [-97.729, 30.33]}, "properties": {"Name": "Taqueria Torres", "Address": "1112 W Koenig Ln, Austin, TX 78756, USA", "Zip": "78756", "Price_Level(Google)": 0.0, "Rating(Google)": 5.0}}
,{"type": "Feature", "geometry": {"type": "Point", "coordinates": [-97.722, 30.352]}, "properties": {"Name": "Casita Guanajuato", "Address": "1519 W Anderson Ln, Austin, TX 78757, USA", "Zip": "78757", "Price_Level(Google)": 2.0, "Rating(Google)": 4.3}}
,{"type": "Feature", "geometry": {"type": "Point", "coordinates": [-97.715, 30.348]}, "properties": {"Name": "El Nuevo Mexico", "Address": "911 W Anderson Ln, Austin, TX 78757, USA", "Zip": "78757", "Price_Level(Google)": 2.0, "Rating(Google)": 4.1}}
,{"type": "Feature", "geometry": {"type": "Point", "coordinates": [-97.735, 30.35]}, "properties": {"Name": "El Mercado Restaurant", "Address": "7414 Burnet Rd, Austin, TX 78757, USA", "Zip": "78757", "Price_Level(Google)": 2.0, "Rating(Google)": 4.2}}
,{"type": "Feature", "geometry": {"type": "Point", "coordinates": [-97.719, 30.363]}, "properties": {"Name": "Pollo Regio", "Address": "1725 Ohlen Rd, Austin, TX 78757, USA", "Zip": "78757", "Price_Level(Google)": 1.0, "Rating(Google)": 4.2}}
,{"type": "Feature", "geometry": {"type": "Point", "coordinates": [-97.727, 30.354]}, "properties": {"Name": "Enchiladas Y Mas", "Address": "1911 W Anderson Ln, Austin, TX 78757, USA", "Zip": "78757", "Price_Level(Google)": 2.0, "Rating(Google)": 4.3}}
,{"type": "Feature", "geometry": {"type": "Point", "coordinates": [-97.739, 30.342]}, "properties": {"Name": "Taqueria Guadalajara Arandas", "Address": "6534 Burnet Rd, Austin, TX 78757, USA", "Zip": "78757", "Price_Level(Google)": 2.0, "Rating(Google)": 4.1}}
,{"type": "Feature", "geometry": {"type": "Point", "coordinates": [-97.742, 30.362]}, "properties": {"Name": "Eldorado Cafe", "Address": "3300 W Anderson Ln #303, Austin, TX 78757, USA", "Zip": "78757", "Price_Level(Google)": 2.0, "Rating(Google)": 4.6}}
,{"type": "Feature", "geometry": {"type": "Point", "coordinates": [-97.736, 30.349]}, "properties": {"Name": "Ichiban Restaurant", "Address": "7310 Burnet Rd, Austin, TX 78757, USA", "Zip": "78757", "Price_Level(Google)": 3.0, "Rating(Google)": 4.5}}
,{"type": "Feature", "geometry": {"type": "Point", "coordinates": [-97.735, 30.359]}, "properties": {"Name": "Chipotle Mexican Grill", "Address": "2700 W Anderson Ln #204, Austin, TX 78757, USA", "Zip": "78757", "Price_Level(Google)": 1.0, "Rating(Google)": 4.1}}
,{"type": "Feature", "geometry": {"type": "Point", "coordinates": [-97.738, 30.344]}, "properties": {"Name": "The Frisco Shop", "Address": "6801 Burnet Rd, Austin, TX 78757, USA", "Zip": "78757", "Price_Level(Google)": 2.0, "Rating(Google)": 4.2}}
,{"type": "Feature", "geometry": {"type": "Point", "coordinates": [-97.737, 30.36]}, "properties": {"Name": "Zen Japanese Food Fast", "Address": "2900 W Anderson Ln #250, Austin, TX 78757, USA", "Zip": "78757", "Price_Level(Google)": 2.0, "Rating(Google)": 4.1}}
,{"type": "Feature", "geometry": {"type": "Point", "coordinates": [-97.735, 30.349]}, "properties": {"Name": "Pizza Land", "Address": "7329 Burnet Rd, Austin, TX 78757, USA", "Zip": "78757", "Price_Level(Google)": 2.0, "Rating(Google)": 2.0}}
,{"type": "Feature", "geometry": {"type": "Point", "coordinates": [-97.726, 30.372]}, "properties": {"Name": "Lebowskis Grill", "Address": "8909 Burnet Rd, Austin, TX 78757, USA", "Zip": "78757", "Price_Level(Google)": 0.0, "Rating(Google)": 4.7}}
,{"type": "Feature", "geometry": {"type": "Point", "coordinates": [-97.741, 30.361]}, "properties": {"Name": "Suzi's China Grill", "Address": "7858 Shoal Creek Blvd, Austin, TX 78757, USA", "Zip": "78757", "Price_Level(Google)": 2.0, "Rating(Google)": 3.9}}
,{"type": "Feature", "geometry": {"type": "Point", "coordinates": [-97.723, 30.384]}, "properties": {"Name": "Gringa's Street Tacos", "Address": "10025 Burnet Rd, Austin, TX 78758, USA", "Zip": "78758", "Price_Level(Google)": 0.0, "Rating(Google)": 4.4}}
,{"type": "Feature", "geometry": {"type": "Point", "coordinates": [-97.729, 30.375]}, "properties": {"Name": "Veracruz All Natural", "Address": "9003 Waterford Centre Blvd Suite 180, Austin, TX 78758, USA", "Zip": "78758", "Price_Level(Google)": 1.0, "Rating(Google)": 4.6}}
,{"type": "Feature", "geometry": {"type": "Point", "coordinates": [-97.694, 30.383]}, "properties": {"Name": "Tacos Luna", "Address": "1200 Kramer Ln, Austin, TX 78758, USA", "Zip": "78758", "Price_Level(Google)": 0.0, "Rating(Google)": 4.3}}
,{"type": "Feature", "geometry": {"type": "Point", "coordinates": [-97.725, 30.374]}, "properties": {"Name": "Casa Chapala", "Address": "9041 Research Blvd #100, Austin, TX 78758, USA", "Zip": "78758", "Price_Level(Google)": 2.0, "Rating(Google)": 4.1}}
,{"type": "Feature", "geometry": {"type": "Point", "coordinates": [-97.717, 30.36]}, "properties": {"Name": "Texican Tacos", "Address": "8538 Research Blvd, Austin, TX 78758, USA", "Zip": "78758", "Price_Level(Google)": 0.0, "Rating(Google)": 5.0}}
,{"type": "Feature", "geometry": {"type": "Point", "coordinates": [-97.746, 30.408]}, "properties": {"Name": "Top Taco", "Address": "11200 Research Blvd, Austin, TX 78759, USA", "Zip": "78759", "Price_Level(Google)": 0.0, "Rating(Google)": 4.7}}
,{"type": "Feature", "geometry": {"type": "Point", "coordinates": [-97.756, 30.373]}, "properties": {"Name": "Molcas Mexican Restaurant", "Address": "8127 Mesa Dr, Austin, TX 78759, USA", "Zip": "78759", "Price_Level(Google)": 2.0, "Rating(Google)": 3.9}}
,{"type": "Feature", "geometry": {"type": "Point", "coordinates": [-97.77, 30.433]}, "properties": {"Name": "Camino Real", "Address": "8650 Spicewood Springs Rd, Austin, TX 78759, USA", "Zip": "78759", "Price_Level(Google)": 2.0, "Rating(Google)": 3.9}}
,{"type": "Feature", "geometry": {"type": "Point", "coordinates": [-97.738, 30.387]}, "properties": {"Name": "Baby Acapulco Restaurant", "Address": "9505 Stonelake Blvd, Austin, TX 78759, USA", "Zip": "78759", "Price_Level(Google)": 2.0, "Rating(Google)": 3.7}}
,{"type": "Feature", "geometry": {"type": "Point", "coordinates": [-97.748, 30.419]}, "properties": {"Name": "Chuy's", "Address": "11680 Research Blvd, Austin, TX 78759, USA", "Zip": "78759", "Price_Level(Google)": 2.0, "Rating(Google)": 4.3}}
,{"type": "Feature", "geometry": {"type": "Point", "coordinates": [-97.771, 30.434]}, "properties": {"Name": "El Amigo Taco", "Address": "8663-8667 Spicewood Springs Rd, Austin, TX 78759, USA", "Zip": "78759", "Price_Level(Google)": 0.0, "Rating(Google)": 5.0}}
,{"type": "Feature", "geometry": {"type": "Point", "coordinates": [-97.734, 30.387]}, "properties": {"Name": "Lupe Tortilla", "Address": "10515 N. Mopac Expressway NB, Austin, TX 78759, USA", "Zip": "78759", "Price_Level(Google)": 2.0, "Rating(Google)": 4.3}}
,{"type": "Feature", "geometry": {"type": "Point", "coordinates": [-97.792, 30.234]}, "properties": {"Name": "Azul Tequila", "Address": "4211 S Lamar Blvd A2, Austin, TX 78704, USA", "Zip": "78704", "Price_Level(Google)": 2.0, "Rating(Google)": 3.9}}
,{"type": "Feature", "geometry": {"type": "Point", "coordinates": [-97.744, 30.266]}, "properties": {"Name": "Manuel's Downtown Mexican Restaurant", "Address": "310 Congress Ave, Austin, TX 78701, USA", "Zip": "78701", "Price_Level(Google)": 2.0, "Rating(Google)": 3.9}}
,{"type": "Feature", "geometry": {"type": "Point", "coordinates": [-97.739, 30.267]}, "properties": {"Name": "Iron Cactus Mexican Restaurant and Margarita Bar", "Address": "606 Trinity St, Austin, TX 78701, USA", "Zip": "78701", "Price_Level(Google)": 0.0, "Rating(Google)": 3.8}}
,{"type": "Feature", "geometry": {"type": "Point", "coordinates": [-97.744, 30.282]}, "properties": {"Name": "Taco Cabana", "Address": "517 W Martin Luther King Jr Blvd, Austin, TX 78701, USA", "Zip": "78701", "Price_Level(Google)": 1.0, "Rating(Google)": 2.9}}
,{"type": "Feature", "geometry": {"type": "Point", "coordinates": [-97.755, 30.251]}, "properties": {"Name": "El Mercado", "Address": "1302 S 1st St, Austin, TX 78704, USA", "Zip": "78704", "Price_Level(Google)": 2.0, "Rating(Google)": 4.0}}
]}